0.738037 [INFO ] got full sentence: $GNZDA,214835.000,07,09,2025,,*4A (blinky src/gps/reader.rs:155)
0.738281 [INFO ] parsing zda, i think... "$GNZDA,214835.000,07,09,2025,,*4A" (blinky src/gps/reader.rs:133)
0.775085 [INFO ] ZDA SENTENCE PARSED 07/09/25 - 21:48 (blinky blinky/src/main.rs:171)
1.635284 [INFO ] got full sentence: $GNGGA,214836.000,3548.7113,N,07847.4138,W,1,21,0.63,118.7,M,-33.0,M,,*42 (blinky src/gps/reader.rs:155)
1.668518 [INFO ] GPS (blinky blinky/src/main.rs:161)
2.721649 [INFO ] got full sentence: $GNZDA,214837.000,07,09,2025,,*48 (blinky src/gps/reader.rs:155)
2.721893 [INFO ] parsing zda, i think... "$GNZDA,214837.000,07,09,2025,,*48" (blinky src/gps/reader.rs:133)
2.797058 [INFO ] ZDA SENTENCE PARSED 07/09/25 - 21:48 (blinky blinky/src/main.rs:171)
3.637756 [INFO ] got full sentence: $GNGGA,214838.000,3548.7113,N,07847.4138,W,1,21,0.63,118.7,M,-33.0,M,,*4C (blinky src/gps/reader.rs:155)
3.699951 [INFO ] GPS (blinky blinky/src/main.rs:161)
5.639617 [INFO ] got full sentence: $GNGGA,214840.000,3548.7112,N,07847.4138,W,1,21,0.63,118.7,M,-33.0,M,,*42 (blinky src/gps/reader.rs:155)
5.724700 [INFO ] got full sentence: $GNZDA,214840.000,07,09,2025,,*48 (blinky src/gps/reader.rs:155)
5.724945 [INFO ] parsing zda, i think... "$GNZDA,214840.000,07,09,2025,,*48" (blinky src/gps/reader.rs:133)
5.731262 [INFO ] GPS (blinky blinky/src/main.rs:161)
5.957427 [INFO ] ZDA SENTENCE PARSED 07/09/25 - 21:48 (blinky blinky/src/main.rs:171)
7.664550 [INFO ] got full sentence: $GNGGA,21481.000,GNGGA,,0.92,0.63,0.67,4*00 (blinky src/gps/reader.rs:155)
7.726287 [INFO ] got full sentence: $GNZDA,214842.000,07,09,2025,,*4A (blinky src/gps/reader.rs:155)
7.726531 [INFO ] parsing zda, i think... "$GNZDA,214842.000,07,09,2025,,*4A" (blinky src/gps/reader.rs:133)
7.763336 [INFO ] NO SIGNAL AT ALL [ERR] $GNGGA,21481.000,GNGGA,,0.92,0.63,0.67,4*00 (blinky blinky/src/main.rs:174)
7.989776 [INFO ] ZDA SENTENCE PARSED 07/09/25 - 21:48 (blinky blinky/src/main.rs:171)
8.644683 [INFO ] got full sentence: $GNGGA,214843.000,3548.7113,N,07847.4138,W,1,21,0.63,118.7,M,-33.0,M,,*40 (blinky src/gps/reader.rs:155)
8.667663 [INFO ] GPS (blinky blinky/src/main.rs:161)
9.727905 [INFO ] got full sentence: $GNZDA,214844.000,07,09,2025,,*4C (blinky src/gps/reader.rs:155)
9.728149 [INFO ] parsing zda, i think... "$GNZDA,214844.000,07,09,2025,,*4C" (blinky src/gps/reader.rs:133)
9.796539 [INFO ] ZDA SENTENCE PARSED 07/09/25 - 21:48 (blinky blinky/src/main.rs:171)
10.638519 [INFO ] got full sentence: $GNGGA,214845.000,3548.7113,N,07847.4138,W,1,21,0.63,118.7,M,-33.0,M,,*46 (blinky src/gps/reader.rs:155)
10.699859 [INFO ] GPS (blinky blinky/src/main.rs:161)
11.736328 [INFO ] got full sentence: $GNZDA,214846.000,07,09,2025,,*4E (blinky src/gps/reader.rs:155)
11.736572 [INFO ] parsing zda, i think... "$GNZDA,214846.000,07,09,2025,,*4E" (blinky src/gps/reader.rs:133)
11.828643 [INFO ] ZDA SENTENCE PARSED 07/09/25 - 21:48 (blinky blinky/src/main.rs:171)
12.646911 [INFO ] got full sentence: $GNGGA,214847.000,3548.7113,N,07847.4138,W,1,21,0.63,118.7,M,-33.0,M,,*44 (blinky src/gps/reader.rs:155)
12.731903 [INFO ] GPS (blinky blinky/src/main.rs:161)
14.666931 [INFO ] got full sentence: $GNGGA,214848.000,3548.7112,N,07847.438,W,1GNGGA,GSA,A,3,74,73,75,,,,,,,,,,0.92,0. (blinky src/gps/reader.rs:155)
14.738220 [INFO ] got full sentence: $GNZDA,214849.000,07,09,2025,,*41 (blinky src/gps/reader.rs:155)
14.738433 [INFO ] parsing zda, i think... "$GNZDA,214849.000,07,09,2025,,*41" (blinky src/gps/reader.rs:133)
14.763641 [INFO ] NO SIGNAL AT ALL [ERR] $GNGGA,214848.000,3548.7112,N,07847.438,W,1GNGGA,GSA,A,3,74,73,75,,,,,,,,,,0.92,0. (blinky blinky/src/main.rs:174)
14.990295 [INFO ] ZDA SENTENCE PARSED 07/09/25 - 21:48 (blinky blinky/src/main.rs:171)
15.651611 [INFO ] got full sentence: $GNGGA,214850.000,3548.7113,N,07847.4139,W,1,21,0.63,118.7,M,-33.0,M,,*43 (blinky src/gps/reader.rs:155)
15.667938 [INFO ] GPS (blinky blinky/src/main.rs:161)
16.727813 [INFO ] got full sentence: $GNZDA,214851.000,07,09,2025,,*48 (blinky src/gps/reader.rs:155)
16.728057 [INFO ] parsing zda, i think... "$GNZDA,214851.000,07,09,2025,,*48" (blinky src/gps/reader.rs:133)
16.796936 [INFO ] ZDA SENTENCE PARSED 07/09/25 - 21:48 (blinky blinky/src/main.rs:171)
17.655944 [INFO ] got full sentence: $GNGGA,214852.000,3548.7113,N,07847.4138,W,1,21,0.63,118.7,M,-33.0,M,,*40 (blinky src/gps/reader.rs:155)
17.700347 [INFO ] GPS (blinky blinky/src/main.rs:161)
18.741302 [INFO ] got full sentence: $GNZDA,214853.000,07,09,2025,,*4A (blinky src/gps/reader.rs:155)
18.741546 [INFO ] parsing zda, i think... "$GNZDA,214853.000,07,09,2025,,*4A" (blinky src/gps/reader.rs:133)
18.829315 [INFO ] ZDA SENTENCE PARSED 07/09/25 - 21:48 (blinky blinky/src/main.rs:171)
19.656585 [INFO ] got full sentence: $GNGGA,214854.000,3548.7113,N,07847.4139,W,1,21,0.63,118.7,M,-33.0,M,,*47 (blinky src/gps/reader.rs:155)
19.732482 [INFO ] GPS (blinky blinky/src/main.rs:161)
21.746398 [INFO ] got full sentence: $GNZDA,214856.000,07,09,2025,,*4F (blinky src/gps/reader.rs:155)
21.746643 [INFO ] parsing zda, i think... "$GNZDA,214856.000,07,09,2025,,*4F" (blinky src/gps/reader.rs:133)
21.764099 [INFO ] ZDA SENTENCE PARSED 07/09/25 - 21:48 (blinky blinky/src/main.rs:171)
23.697692 [INFO ] got full sentence: $GNGGA,214857.000,3548.7113,N,07847.4138,W,1,21,0.63,1187,M,-3GNGGA,,21,311,28,29, (blinky src/gps/reader.rs:155)
23.747100 [INFO ] got full sentence: $GNZDA,214858.000,07,09,2025,,*41 (blinky src/gps/reader.rs:155)
23.747344 [INFO ] parsing zda, i think... "$GNZDA,214858.000,07,09,2025,,*41" (blinky src/gps/reader.rs:133)
23.795776 [INFO ] NO SIGNAL AT ALL [ERR] $GNGGA,214857.000,3548.7113,N,07847.4138,W,1,21,0.63,1187,M,-3GNGGA,,21,311,28,29, (blinky blinky/src/main.rs:174)
24.022491 [INFO ] ZDA SENTENCE PARSED 07/09/25 - 21:48 (blinky blinky/src/main.rs:171)
24.662261 [INFO ] got full sentence: $GNGGA,214859.000,3548.7113,N,07847.4138,W,1,21,0.63,118.7,M,-33.0,M,,*4B (blinky src/gps/reader.rs:155)
24.700256 [INFO ] GPS (blinky blinky/src/main.rs:161)
25.755706 [INFO ] got full sentence: $GNZDA,214900.000,07,09,2025,,*4D (blinky src/gps/reader.rs:155)
25.755950 [INFO ] parsing zda, i think... "$GNZDA,214900.000,07,09,2025,,*4D" (blinky src/gps/reader.rs:133)
25.828887 [INFO ] ZDA SENTENCE PARSED 07/09/25 - 21:49 (blinky blinky/src/main.rs:171)
26.670806 [INFO ] got full sentence: $GNGGA,214901.000,3548.7113,N,07847.4138,W,1,21,0.63,118.7,M,-33.0,M,,*47 (blinky src/gps/reader.rs:155)
26.732116 [INFO ] GPS (blinky blinky/src/main.rs:161)
28.674041 [INFO ] got full sentence: $GNGGA,214903.000,3548.7112,N,07847.4138,W,1,21,0.63,118.7,M,-33.0,M,,*44 (blinky src/gps/reader.rs:155)
28.759307 [INFO ] got full sentence: $GNZDA,214903.000,07,09,2025,,*4E (blinky src/gps/reader.rs:155)
28.759552 [INFO ] parsing zda, i think... "$GNZDA,214903.000,07,09,2025,,*4E" (blinky src/gps/reader.rs:133)
28.763366 [INFO ] GPS (blinky blinky/src/main.rs:161)
28.989501 [INFO ] ZDA SENTENCE PARSED 07/09/25 - 21:49 (blinky blinky/src/main.rs:171)
30.699737 [INFO ] got full sentence: $GNGGA,214904.000,3548.711,N,078GNGGA,,26,77,172,33,31,66,006,31,28,45,050,30,03,4 (blinky src/gps/reader.rs:155)
30.755401 [INFO ] got full sentence: $GNZDA,214905.000,07,09,2025,,*48 (blinky src/gps/reader.rs:155)
30.755645 [INFO ] parsing zda, i think... "$GNZDA,214905.000,07,09,2025,,*48" (blinky src/gps/reader.rs:133)
30.795349 [INFO ] NO SIGNAL AT ALL [ERR] $GNGGA,214904.000,3548.711,N,078GNGGA,,26,77,172,33,31,66,006,31,28,45,050,30,03,4 (blinky blinky/src/main.rs:174)
31.021972 [INFO ] ZDA SENTENCE PARSED 07/09/25 - 21:49 (blinky blinky/src/main.rs:171)
31.670440 [INFO ] got full sentence: $GNGGA,214906.000,3548.7113,N,07847.4138,W,1,21,0.63,118.7,M,-33.0,M,,*40 (blinky src/gps/reader.rs:155)
31.699737 [INFO ] GPS (blinky blinky/src/main.rs:161)
32.759002 [INFO ] got full sentence: $GNZDA,214907.000,07,09,2025,,*4A (blinky src/gps/reader.rs:155)
32.759246 [INFO ] parsing zda, i think... "$GNZDA,214907.000,07,09,2025,,*4A" (blinky src/gps/reader.rs:133)
32.828552 [INFO ] ZDA SENTENCE PARSED 07/09/25 - 21:49 (blinky blinky/src/main.rs:171)
33.694122 [INFO ] got full sentence: $GNGGA,214908.000,3548.7113,N,07847.4139,W,1,21,0.63,118.7,M,-33.0,M,,*4F (blinky src/gps/reader.rs:155)
33.731781 [INFO ] GPS (blinky blinky/src/main.rs:161)
35.678192 [INFO ] got full sentence: $GNGGA,214910.000,3548.7113,N,07847.4138,W,1,21,0.63,118.7,M,-33.0,M,,*47 (blinky src/gps/reader.rs:155)
35.763580 [INFO ] GPS (blinky blinky/src/main.rs:161)
Firmware exited unexpectedly: Exception
