0.700225 [INFO ] got full sentence: $GNGGA,191354.000,3548.7133,N,07847.4085,W,1,23,0.61,129.7,M,-33.0,M,,*44 (blinky src/gps/reader.rs:114)
0.701385 [INFO ] parsing gps (blinky blinky/src/main.rs:74)
0.701446 [INFO ] GPS (blinky blinky/src/main.rs:78)
0.795379 [INFO ] got full sentence: $GNZDA,191354.000,07,09,2025,,*48 (blinky src/gps/reader.rs:114)
0.801544 [INFO ] parsing gps (blinky blinky/src/main.rs:74)
0.801605 [INFO ] NO SIGNAL AT ALL [ERR] $GNZDA,191354.000,07,09,2025,,*48 (blinky blinky/src/main.rs:88)
1.702728 [INFO ] got full sentence: $GNGGA,191355.000,3548.7133,N,07847.4085,W,1,24,0.59,129.7,M,-33.0,M,,*49 (blinky src/gps/reader.rs:114)
1.800903 [INFO ] got full sentence: $GNZDA,191355.000,07,09,2025,,*49 (blinky src/gps/reader.rs:114)
1.801940 [INFO ] parsing gps (blinky blinky/src/main.rs:74)
1.802001 [INFO ] GPS (blinky blinky/src/main.rs:78)
1.902404 [INFO ] parsing gps (blinky blinky/src/main.rs:74)
1.902465 [INFO ] NO SIGNAL AT ALL [ERR] $GNZDA,191355.000,07,09,2025,,*49 (blinky blinky/src/main.rs:88)
2.705993 [INFO ] got full sentence: $GNGGA,191356.000,3548.7133,N,07847.4085,W,1,24,0.59,129.7,M,-33.0,M,,*4A (blinky src/gps/reader.rs:114)
2.803131 [INFO ] parsing gps (blinky blinky/src/main.rs:74)
2.803192 [INFO ] GPS (blinky blinky/src/main.rs:78)
2.804168 [INFO ] got full sentence: $GNZDA,191356.000,07,09,2025,,*4A (blinky src/gps/reader.rs:114)
2.903625 [INFO ] parsing gps (blinky blinky/src/main.rs:74)
2.903686 [INFO ] NO SIGNAL AT ALL [ERR] $GNZDA,191356.000,07,09,2025,,*4A (blinky blinky/src/main.rs:88)
3.708068 [INFO ] got full sentence: $GNGGA,191357.000,3548.7133,N,07847.4085,W,1,24,0.59,129.7,M,-33.0,M,,*4B (blinky src/gps/reader.rs:114)
3.804382 [INFO ] parsing gps (blinky blinky/src/main.rs:74)
3.804412 [INFO ] GPS (blinky blinky/src/main.rs:78)
3.806274 [INFO ] got full sentence: $GNZDA,191357.000,07,09,2025,,*4B (blinky src/gps/reader.rs:114)
3.904846 [INFO ] parsing gps (blinky blinky/src/main.rs:74)
3.904907 [INFO ] NO SIGNAL AT ALL [ERR] $GNZDA,191357.000,07,09,2025,,*4B (blinky blinky/src/main.rs:88)
4.701110 [INFO ] got full sentence: $GNGGA,191358.000,3548.7133,N,07847.4085,W,1,23,0.59,129.7,M,-33.0,M,,*43 (blinky src/gps/reader.rs:114)
4.705566 [INFO ] parsing gps (blinky blinky/src/main.rs:74)
4.705627 [INFO ] GPS (blinky blinky/src/main.rs:78)
4.793395 [INFO ] got full sentence: $GNZDA,191358.000,07,09,2025,,*44 (blinky src/gps/reader.rs:114)
4.806030 [INFO ] parsing gps (blinky blinky/src/main.rs:74)
4.806091 [INFO ] NO SIGNAL AT ALL [ERR] $GNZDA,191358.000,07,09,2025,,*44 (blinky blinky/src/main.rs:88)
5.705902 [INFO ] got full sentence: $GNGGA,191359.000,3548.7133,N,07847.4085,W,1,23,0.59,129.7,M,-33.0,M,,*42 (blinky src/gps/reader.rs:114)
5.707061 [INFO ] parsing gps (blinky blinky/src/main.rs:74)
5.707122 [INFO ] GPS (blinky blinky/src/main.rs:78)
5.800079 [INFO ] got full sentence: $GNZDA,191359.000,07,09,2025,,*45 (blinky src/gps/reader.rs:114)
5.807525 [INFO ] parsing gps (blinky blinky/src/main.rs:74)
5.807586 [INFO ] NO SIGNAL AT ALL [ERR] $GNZDA,191359.000,07,09,2025,,*45 (blinky blinky/src/main.rs:88)
6.706970 [INFO ] got full sentence: $GNGGA,191400.000,3548.7133,N,07847.4085,W,1,22,0.62,129.7,M,-33.0,M,,*40 (blinky src/gps/reader.rs:114)
6.708251 [INFO ] parsing gps (blinky blinky/src/main.rs:74)
6.708312 [INFO ] GPS (blinky blinky/src/main.rs:78)
6.799835 [INFO ] got full sentence: $GNZDA,191400.000,07,09,2025,,*4E (blinky src/gps/reader.rs:114)
6.808715 [INFO ] parsing gps (blinky blinky/src/main.rs:74)
6.808776 [INFO ] NO SIGNAL AT ALL [ERR] $GNZDA,191400.000,07,09,2025,,*4E (blinky blinky/src/main.rs:88)
7.721923 [INFO ] got full sentence: $GNGGA,191401.000,3548.7133,N,07847.4085,W,1,22,0.62,129.7,M,-33.0,M,,*41 (blinky src/gps/reader.rs:114)
7.809448 [INFO ] parsing gps (blinky blinky/src/main.rs:74)
7.809509 [INFO ] GPS (blinky blinky/src/main.rs:78)
7.814788 [INFO ] got full sentence: $GNZDA,191401.000,07,09,2025,,*4F (blinky src/gps/reader.rs:114)
7.909912 [INFO ] parsing gps (blinky blinky/src/main.rs:74)
7.909973 [INFO ] NO SIGNAL AT ALL [ERR] $GNZDA,191401.000,07,09,2025,,*4F (blinky blinky/src/main.rs:88)
8.707489 [INFO ] got full sentence: $GNGGA,191402.000,3548.7133,N,07847.4085,W,1,22,0.62,129.7,M,-33.0,M,,*42 (blinky src/gps/reader.rs:114)
8.710662 [INFO ] parsing gps (blinky blinky/src/main.rs:74)
8.710693 [INFO ] GPS (blinky blinky/src/main.rs:78)
8.800384 [INFO ] got full sentence: $GNZDA,191402.000,07,09,2025,,*4C (blinky src/gps/reader.rs:114)
8.811126 [INFO ] parsing gps (blinky blinky/src/main.rs:74)
8.811187 [INFO ] NO SIGNAL AT ALL [ERR] $GNZDA,191402.000,07,09,2025,,*4C (blinky blinky/src/main.rs:88)
9.714721 [INFO ] got full sentence: $GNGGA,191403.000,3548.7134,N,07847.4085,W,1,22,0.62,129.7,M,-33.0,M,,*44 (blinky src/gps/reader.rs:114)
9.806640 [INFO ] got full sentence: $GNZDA,191403.000,07,09,2025,,*4D (blinky src/gps/reader.rs:114)
9.811859 [INFO ] parsing gps (blinky blinky/src/main.rs:74)
9.811920 [INFO ] GPS (blinky blinky/src/main.rs:78)
9.912445 [INFO ] parsing gps (blinky blinky/src/main.rs:74)
9.912506 [INFO ] NO SIGNAL AT ALL [ERR] $GNZDA,191403.000,07,09,2025,,*4D (blinky blinky/src/main.rs:88)
10.709655 [INFO ] got full sentence: $GNGGA,191404.000,3548.7134,N,07847.4085,W,1,22,0.62,129.7,M,-33.0,M,,*43 (blinky src/gps/reader.rs:114)
10.713287 [INFO ] parsing gps (blinky blinky/src/main.rs:74)
10.713348 [INFO ] GPS (blinky blinky/src/main.rs:78)
10.801605 [INFO ] got full sentence: $GNZDA,191404.000,07,09,2025,,*4A (blinky src/gps/reader.rs:114)
10.813903 [INFO ] parsing gps (blinky blinky/src/main.rs:74)
10.813964 [INFO ] NO SIGNAL AT ALL [ERR] $GNZDA,191404.000,07,09,2025,,*4A (blinky blinky/src/main.rs:88)
11.711395 [INFO ] got full sentence: $GNGGA,191405.000,3548.7134,N,07847.4084,W,1,22,0.62,129.7,M,-33.0,M,,*43 (blinky src/gps/reader.rs:114)
11.714752 [INFO ] parsing gps (blinky blinky/src/main.rs:74)
11.714813 [INFO ] GPS (blinky blinky/src/main.rs:78)
11.803314 [INFO ] got full sentence: $GNZDA,191405.000,07,09,2025,,*4B (blinky src/gps/reader.rs:114)
11.815368 [INFO ] parsing gps (blinky blinky/src/main.rs:74)
11.815429 [INFO ] NO SIGNAL AT ALL [ERR] $GNZDA,191405.000,07,09,2025,,*4B (blinky blinky/src/main.rs:88)
12.698577 [INFO ] got full sentence: $GNGGA,191406.000,3548.7133,N,07847.4084,W,1,22,0.62,129.7,M,-33.0,M,,*47 (blinky src/gps/reader.rs:114)
12.716217 [INFO ] parsing gps (blinky blinky/src/main.rs:74)
12.716278 [INFO ] GPS (blinky blinky/src/main.rs:78)
12.790496 [INFO ] got full sentence: $GNZDA,191406.000,07,09,2025,,*48 (blinky src/gps/reader.rs:114)
12.816833 [INFO ] parsing gps (blinky blinky/src/main.rs:74)
12.816894 [INFO ] NO SIGNAL AT ALL [ERR] $GNZDA,191406.000,07,09,2025,,*48 (blinky blinky/src/main.rs:88)
13.699615 [INFO ] got full sentence: $GNGGA,191407.000,3548.7133,N,07847.4084,W,1,22,0.62,129.7,M,-33.0,M,,*46 (blinky src/gps/reader.rs:114)
13.717681 [INFO ] parsing gps (blinky blinky/src/main.rs:74)
13.717742 [INFO ] GPS (blinky blinky/src/main.rs:78)
13.791534 [INFO ] got full sentence: $GNZDA,191407.000,07,09,2025,,*49 (blinky src/gps/reader.rs:114)
13.818298 [INFO ] parsing gps (blinky blinky/src/main.rs:74)
13.818359 [INFO ] NO SIGNAL AT ALL [ERR] $GNZDA,191407.000,07,09,2025,,*49 (blinky blinky/src/main.rs:88)
14.701019 [INFO ] got full sentence: $GNGGA,191408.000,3548.7133,N,07847.4083,W,1,22,0.62,129.7,M,-33.0,M,,*4E (blinky src/gps/reader.rs:114)
14.719177 [INFO ] parsing gps (blinky blinky/src/main.rs:74)
14.719207 [INFO ] GPS (blinky blinky/src/main.rs:78)
14.792938 [INFO ] got full sentence: $GNZDA,191408.000,07,09,2025,,*46 (blinky src/gps/reader.rs:114)
14.819824 [INFO ] parsing gps (blinky blinky/src/main.rs:74)
14.819885 [INFO ] NO SIGNAL AT ALL [ERR] $GNZDA,191408.000,07,09,2025,,*46 (blinky blinky/src/main.rs:88)
15.719451 [INFO ] got full sentence: $GNGGA,191409.000,3548.7134,N,07847.4084,W,1,22,0.62,129.7,M,-33.0,M,,*4F (blinky src/gps/reader.rs:114)
15.720733 [INFO ] parsing gps (blinky blinky/src/main.rs:74)
15.720794 [INFO ] GPS (blinky blinky/src/main.rs:78)
15.811401 [INFO ] got full sentence: $GNZDA,191409.000,07,09,2025,,*47 (blinky src/gps/reader.rs:114)
15.821350 [INFO ] parsing gps (blinky blinky/src/main.rs:74)
15.821411 [INFO ] NO SIGNAL AT ALL [ERR] $GNZDA,191409.000,07,09,2025,,*47 (blinky blinky/src/main.rs:88)
16.702545 [INFO ] got full sentence: $GNGGA,191410.000,3548.7134,N,07847.4083,W,1,22,0.62,129.7,M,-33.0,M,,*40 (blinky src/gps/reader.rs:114)
16.722198 [INFO ] parsing gps (blinky blinky/src/main.rs:74)
16.722259 [INFO ] GPS (blinky blinky/src/main.rs:78)
16.794464 [INFO ] got full sentence: $GNZDA,191410.000,07,09,2025,,*4F (blinky src/gps/reader.rs:114)
16.822875 [INFO ] parsing gps (blinky blinky/src/main.rs:74)
16.822937 [INFO ] NO SIGNAL AT ALL [ERR] $GNZDA,191410.000,07,09,2025,,*4F (blinky blinky/src/main.rs:88)
17.703491 [INFO ] got full sentence: $GNGGA,191411.000,3548.7134,N,07847.4083,W,1,21,0.63,129.7,M,-33.0,M,,*43 (blinky src/gps/reader.rs:114)
17.723846 [INFO ] parsing gps (blinky blinky/src/main.rs:74)
17.723876 [INFO ] GPS (blinky blinky/src/main.rs:78)
17.795074 [INFO ] got full sentence: $GNZDA,191411.000,07,09,2025,,*4E (blinky src/gps/reader.rs:114)
17.824523 [INFO ] parsing gps (blinky blinky/src/main.rs:74)
17.824584 [INFO ] NO SIGNAL AT ALL [ERR] $GNZDA,191411.000,07,09,2025,,*4E (blinky blinky/src/main.rs:88)
18.719512 [INFO ] got full sentence: $GNGGA,191412.000,3548.7134,N,07847.4083,W,1,21,0.63,129.7,M,-33.0,M,,*40 (blinky src/gps/reader.rs:114)
18.725463 [INFO ] parsing gps (blinky blinky/src/main.rs:74)
18.725524 [INFO ] GPS (blinky blinky/src/main.rs:78)
18.811096 [INFO ] got full sentence: $GNZDA,191412.000,07,09,2025,,*4D (blinky src/gps/reader.rs:114)
18.826141 [INFO ] parsing gps (blinky blinky/src/main.rs:74)
18.826202 [INFO ] NO SIGNAL AT ALL [ERR] $GNZDA,191412.000,07,09,2025,,*4D (blinky blinky/src/main.rs:88)
19.720733 [INFO ] got full sentence: $GNGGA,191413.000,3548.7134,N,07847.4083,W,1,22,0.62,129.7,M,-33.0,M,,*43 (blinky src/gps/reader.rs:114)
19.727111 [INFO ] parsing gps (blinky blinky/src/main.rs:74)
19.727142 [INFO ] GPS (blinky blinky/src/main.rs:78)
19.807128 [INFO ] got full sentence: $GNZDA,191413.000,07,09,2025,,*4C (blinky src/gps/reader.rs:114)
19.827789 [INFO ] parsing gps (blinky blinky/src/main.rs:74)
19.827850 [INFO ] NO SIGNAL AT ALL [ERR] $GNZDA,191413.000,07,09,2025,,*4C (blinky blinky/src/main.rs:88)
20.725219 [INFO ] got full sentence: $GNGGA,191414.000,3548.7134,N,07847.4084,W,1,22,0.62,129.7,M,-33.0,M,,*43 (blinky src/gps/reader.rs:114)
20.728729 [INFO ] parsing gps (blinky blinky/src/main.rs:74)
20.728790 [INFO ] GPS (blinky blinky/src/main.rs:78)
20.822875 [INFO ] got full sentence: $GNZDA,191414.000,07,09,2025,,*4B (blinky src/gps/reader.rs:114)
20.829345 [INFO ] parsing gps (blinky blinky/src/main.rs:74)
20.829406 [INFO ] NO SIGNAL AT ALL [ERR] $GNZDA,191414.000,07,09,2025,,*4B (blinky blinky/src/main.rs:88)
21.717773 [INFO ] got full sentence: $GNGGA,191415.000,3548.7133,N,07847.4083,W,1,22,0.62,129.7,M,-33.0,M,,*42 (blinky src/gps/reader.rs:114)
21.730224 [INFO ] parsing gps (blinky blinky/src/main.rs:74)
21.730285 [INFO ] GPS (blinky blinky/src/main.rs:78)
21.815429 [INFO ] got full sentence: $GNZDA,191415.000,07,09,2025,,*4A (blinky src/gps/reader.rs:114)
21.830902 [INFO ] parsing gps (blinky blinky/src/main.rs:74)
21.830963 [INFO ] NO SIGNAL AT ALL [ERR] $GNZDA,191415.000,07,09,2025,,*4A (blinky blinky/src/main.rs:88)
22.730010 [INFO ] got full sentence: $GNGGA,191416.000,3548.7133,N,07847.4084,W,1,23,0.61,129.7,M,-33.0,M,,*44 (blinky src/gps/reader.rs:114)
22.731872 [INFO ] parsing gps (blinky blinky/src/main.rs:74)
22.731903 [INFO ] GPS (blinky blinky/src/main.rs:78)
22.827850 [INFO ] got full sentence: $GNZDA,191416.000,07,09,2025,,*49 (blinky src/gps/reader.rs:114)
22.832458 [INFO ] parsing gps (blinky blinky/src/main.rs:74)
22.832519 [INFO ] NO SIGNAL AT ALL [ERR] $GNZDA,191416.000,07,09,2025,,*49 (blinky blinky/src/main.rs:88)
23.717071 [INFO ] got full sentence: $GNGGA,191417.000,3548.7133,N,07847.4083,W,1,23,0.61,129.7,M,-33.0,M,,*42 (blinky src/gps/reader.rs:114)
23.733306 [INFO ] parsing gps (blinky blinky/src/main.rs:74)
23.733367 [INFO ] GPS (blinky blinky/src/main.rs:78)
23.814910 [INFO ] got full sentence: $GNZDA,191417.000,07,09,2025,,*48 (blinky src/gps/reader.rs:114)
23.833984 [INFO ] parsing gps (blinky blinky/src/main.rs:74)
23.834045 [INFO ] NO SIGNAL AT ALL [ERR] $GNZDA,191417.000,07,09,2025,,*48 (blinky blinky/src/main.rs:88)
24.719207 [INFO ] got full sentence: $GNGGA,191418.000,3548.7133,N,07847.4084,W,1,23,0.61,129.7,M,-33.0,M,,*4A (blinky src/gps/reader.rs:114)
24.734924 [INFO ] parsing gps (blinky blinky/src/main.rs:74)
24.734985 [INFO ] GPS (blinky blinky/src/main.rs:78)
24.817047 [INFO ] got full sentence: $GNZDA,191418.000,07,09,2025,,*47 (blinky src/gps/reader.rs:114)
24.835540 [INFO ] parsing gps (blinky blinky/src/main.rs:74)
24.835601 [INFO ] NO SIGNAL AT ALL [ERR] $GNZDA,191418.000,07,09,2025,,*47 (blinky blinky/src/main.rs:88)
25.735870 [INFO ] got full sentence: $GNGGA,191419.000,3548.7134,N,07847.4083,W,1,23,0.59,129.7,M,-33.0,M,,*40 (blinky src/gps/reader.rs:114)
25.737030 [INFO ] parsing gps (blinky blinky/src/main.rs:74)
25.737091 [INFO ] GPS (blinky blinky/src/main.rs:78)
25.833709 [INFO ] got full sentence: $GNZDA,191419.000,07,09,2025,,*46 (blinky src/gps/reader.rs:114)
25.837738 [INFO ] parsing gps (blinky blinky/src/main.rs:74)
25.837799 [INFO ] NO SIGNAL AT ALL [ERR] $GNZDA,191419.000,07,09,2025,,*46 (blinky blinky/src/main.rs:88)
26.737182 [INFO ] got full sentence: $GNGGA,191420.000,3548.7133,N,07847.4084,W,1,23,0.59,129.7,M,-33.0,M,,*4A (blinky src/gps/reader.rs:114)
26.738677 [INFO ] parsing gps (blinky blinky/src/main.rs:74)
26.738739 [INFO ] GPS (blinky blinky/src/main.rs:78)
26.832336 [INFO ] got full sentence: $GNZDA,191420.000,07,09,2025,,*4C (blinky src/gps/reader.rs:114)
26.839294 [INFO ] parsing gps (blinky blinky/src/main.rs:74)
26.839355 [INFO ] NO SIGNAL AT ALL [ERR] $GNZDA,191420.000,07,09,2025,,*4C (blinky blinky/src/main.rs:88)
27.739074 [INFO ] got full sentence: $GNGGA,191421.000,3548.7134,N,07847.4083,W,1,23,0.59,129.7,M,-33.0,M,,*4B (blinky src/gps/reader.rs:114)
27.740234 [INFO ] parsing gps (blinky blinky/src/main.rs:74)
27.740295 [INFO ] GPS (blinky blinky/src/main.rs:78)
27.836914 [INFO ] got full sentence: $GNZDA,191421.000,07,09,2025,,*4D (blinky src/gps/reader.rs:114)
27.840911 [INFO ] parsing gps (blinky blinky/src/main.rs:74)
27.840972 [INFO ] NO SIGNAL AT ALL [ERR] $GNZDA,191421.000,07,09,2025,,*4D (blinky blinky/src/main.rs:88)
