0.408264 [INFO ] got full sentence: $GNGGA,184033.000,3548.7128,N,07847.4079,W,1,24,0.59,127.8,M,-33.0,M,,*46 (blinky src/gps/reader.rs:106)
0.418060 [INFO ] got full sentence: $GNGSA,A,3,10,32,28,23,25,12,02,31,24,,,,1.08,0.59,0.91,1*05 (blinky src/gps/reader.rs:106)
0.500518 [INFO ] parsing gps (blinky blinky/src/main.rs:74)
0.500549 [INFO ] GPS (blinky blinky/src/main.rs:80)
0.505126 [INFO ] got full sentence: $GNVTG,0.00,T,,M,0.11,N,0.21,K,A*20 (blinky src/gps/reader.rs:106)
0.600646 [INFO ] parsing gps (blinky blinky/src/main.rs:74)
0.600677 [INFO ] NO SIGNAL AT ALL (blinky blinky/src/main.rs:104)
0.700775 [INFO ] parsing gps (blinky blinky/src/main.rs:74)
0.700805 [INFO ] NO SIGNAL AT ALL (blinky blinky/src/main.rs:104)
1.299194 [INFO ] got full sentence: $PAIR010,0,1,2383,67251*07 (blinky src/gps/reader.rs:106)
1.300933 [INFO ] parsing gps (blinky blinky/src/main.rs:74)
1.300964 [INFO ] NO SIGNAL AT ALL (blinky blinky/src/main.rs:104)
1.405029 [INFO ] got full sentence: $GNGGA,184034.000,3548.7128,N,07847.4079,W,1,24,0.59,127.7,M,-33.0,M,,*4E (blinky src/gps/reader.rs:106)
1.414825 [INFO ] got full sentence: $GNGSA,A,3,10,32,28,23,25,12,02,31,24,,,,1.08,0.59,0.91,1*05 (blinky src/gps/reader.rs:106)
1.501068 [INFO ] parsing gps (blinky blinky/src/main.rs:74)
1.501098 [INFO ] GPS (blinky blinky/src/main.rs:80)
1.504913 [INFO ] got full sentence: $GNZDA,184034.000,07,09,2025,,*49 (blinky src/gps/reader.rs:106)
1.601531 [INFO ] parsing gps (blinky blinky/src/main.rs:74)
1.601562 [INFO ] NO SIGNAL AT ALL (blinky blinky/src/main.rs:104)
1.701995 [INFO ] parsing gps (blinky blinky/src/main.rs:74)
1.702026 [INFO ] NO SIGNAL AT ALL (blinky blinky/src/main.rs:104)
2.405334 [INFO ] got full sentence: $GNGGA,184035.000,3548.7128,N,07847.4079,W,1,24,0.59,127.8,M,-33.0,M,,*40 (blinky src/gps/reader.rs:106)
2.415130 [INFO ] got full sentence: $GNGSA,A,3,10,32,28,23,25,12,02,31,24,,,,1.08,0.59,0.91,1*05 (blinky src/gps/reader.rs:106)
2.502502 [INFO ] parsing gps (blinky blinky/src/main.rs:74)
2.502532 [INFO ] GPS (blinky blinky/src/main.rs:80)
2.602966 [INFO ] parsing gps (blinky blinky/src/main.rs:74)
2.602996 [INFO ] NO SIGNAL AT ALL (blinky blinky/src/main.rs:104)
3.408477 [INFO ] got full sentence: $GNGGA,184036.000,3548.7128,N,07847.4079,W,1,24,0.59,127.6,M,-33.0,M,,*4D (blinky src/gps/reader.rs:106)
3.418273 [INFO ] got full sentence: $GNGSA,A,3,10,32,28,23,25,12,02,31,24,,,,1.08,0.59,0.91,1*05 (blinky src/gps/reader.rs:106)
3.503479 [INFO ] parsing gps (blinky blinky/src/main.rs:74)
3.503509 [INFO ] GPS (blinky blinky/src/main.rs:80)
3.508361 [INFO ] got full sentence: $GNZDA,184036.000,07,09,2025,,*4B (blinky src/gps/reader.rs:106)
3.603942 [INFO ] parsing gps (blinky blinky/src/main.rs:74)
3.603973 [INFO ] NO SIGNAL AT ALL (blinky blinky/src/main.rs:104)
3.704406 [INFO ] parsing gps (blinky blinky/src/main.rs:74)
3.704437 [INFO ] NO SIGNAL AT ALL (blinky blinky/src/main.rs:104)
4.408294 [INFO ] got full sentence: $GNGGA,184037.000,3548.7128,N,07847.4079,W,1,24,0.59,127.8,M,-33.0,M,,*42 (blinky src/gps/reader.rs:106)
4.418121 [INFO ] got full sentence: $GNGSA,A,3,10,32,28,23,25,12,02,31,24,,,,1.08,0.59,0.91,1*05 (blinky src/gps/reader.rs:106)
4.504913 [INFO ] parsing gps (blinky blinky/src/main.rs:74)
4.504943 [INFO ] GPS (blinky blinky/src/main.rs:80)
4.605377 [INFO ] parsing gps (blinky blinky/src/main.rs:74)
4.605407 [INFO ] NO SIGNAL AT ALL (blinky blinky/src/main.rs:104)
5.410186 [INFO ] got full sentence: $GNGGA,184038.000,3548.7128,N,07847.4079,W,1,24,0.59,127.6,M,-33.0,M,,*43 (blinky src/gps/reader.rs:106)
5.419982 [INFO ] got full sentence: $GNGSA,A,3,10,32,28,23,25,12,02,31,24,,,,1.08,0.59,0.91,1*05 (blinky src/gps/reader.rs:106)
5.505889 [INFO ] parsing gps (blinky blinky/src/main.rs:74)
5.505920 [INFO ] GPS (blinky blinky/src/main.rs:80)
5.510101 [INFO ] got full sentence: $GNZDA,184038.000,07,09,2025,,*45 (blinky src/gps/reader.rs:106)
5.606353 [INFO ] parsing gps (blinky blinky/src/main.rs:74)
5.606384 [INFO ] NO SIGNAL AT ALL (blinky blinky/src/main.rs:104)
5.706817 [INFO ] parsing gps (blinky blinky/src/main.rs:74)
5.706848 [INFO ] NO SIGNAL AT ALL (blinky blinky/src/main.rs:104)
6.430145 [INFO ] got full sentence: $GNGGA,184039.000,3548.7128,N,07847.4079,W,1,24,0.59,127.6,M,-33.0,M,,*42 (blinky src/gps/reader.rs:106)
6.439941 [INFO ] got full sentence: $GNGSA,A,3,10,32,28,23,25,12,02,31,24,,,,1.08,0.59,0.91,1*05 (blinky src/gps/reader.rs:106)
6.507324 [INFO ] parsing gps (blinky blinky/src/main.rs:74)
6.507354 [INFO ] GPS (blinky blinky/src/main.rs:80)
6.515045 [INFO ] got full sentence: $GBGSV,3,2,09,46,28,188,,19,20,303,25,29,13,251,25,35,06,305,,1*74 (blinky src/gps/reader.rs:106)
6.607788 [INFO ] parsing gps (blinky blinky/src/main.rs:74)
6.607818 [INFO ] NO SIGNAL AT ALL (blinky blinky/src/main.rs:104)
6.708251 [INFO ] parsing gps (blinky blinky/src/main.rs:74)
6.708282 [INFO ] NO SIGNAL AT ALL (blinky blinky/src/main.rs:104)
7.412994 [INFO ] got full sentence: $GNGGA,184040.000,3548.7128,N,07847.4079,W,1,24,0.59,127.5,M,-33.0,M,,*4F (blinky src/gps/reader.rs:106)
7.422821 [INFO ] got full sentence: $GNGSA,A,3,10,32,28,23,25,12,02,31,24,,,,1.08,0.59,0.91,1*05 (blinky src/gps/reader.rs:106)
7.508758 [INFO ] parsing gps (blinky blinky/src/main.rs:74)
7.508789 [INFO ] GPS (blinky blinky/src/main.rs:80)
7.513092 [INFO ] got full sentence: $GNZDA,184040.000,07,09,2025,,*4A (blinky src/gps/reader.rs:106)
7.609222 [INFO ] parsing gps (blinky blinky/src/main.rs:74)
7.609252 [INFO ] NO SIGNAL AT ALL (blinky blinky/src/main.rs:104)
7.709686 [INFO ] parsing gps (blinky blinky/src/main.rs:74)
7.709716 [INFO ] NO SIGNAL AT ALL (blinky blinky/src/main.rs:104)
8.412017 [INFO ] got full sentence: $GNGGA,184041.000,3548.7128,N,07847.4080,W,1,24,0.59,127.4,M,-33.0,M,,*49 (blinky src/gps/reader.rs:106)
8.421813 [INFO ] got full sentence: $GNGSA,A,3,10,32,28,23,25,12,02,31,24,,,,1.08,0.59,0.91,1*05 (blinky src/gps/reader.rs:106)
8.510192 [INFO ] parsing gps (blinky blinky/src/main.rs:74)
8.510223 [INFO ] GPS (blinky blinky/src/main.rs:80)
8.610778 [INFO ] parsing gps (blinky blinky/src/main.rs:74)
8.610809 [INFO ] NO SIGNAL AT ALL (blinky blinky/src/main.rs:104)
9.415710 [INFO ] got full sentence: $GNGGA,184042.000,3548.7128,N,07847.4080,W,1,24,0.59,127.3,M,-33.0,M,,*4D (blinky src/gps/reader.rs:106)
9.425506 [INFO ] got full sentence: $GNGSA,A,3,10,32,28,23,25,12,02,31,24,,,,1.08,0.59,0.91,1*05 (blinky src/gps/reader.rs:106)
9.511413 [INFO ] parsing gps (blinky blinky/src/main.rs:74)
9.511444 [INFO ] GPS (blinky blinky/src/main.rs:80)
9.515777 [INFO ] got full sentence: $GNZDA,184042.000,07,09,2025,,*48 (blinky src/gps/reader.rs:106)
9.611999 [INFO ] parsing gps (blinky blinky/src/main.rs:74)
9.612030 [INFO ] NO SIGNAL AT ALL (blinky blinky/src/main.rs:104)
9.712585 [INFO ] parsing gps (blinky blinky/src/main.rs:74)
9.712615 [INFO ] NO SIGNAL AT ALL (blinky blinky/src/main.rs:104)
10.420654 [INFO ] got full sentence: $GNGGA,184043.000,3548.7128,N,07847.4080,W,1,24,0.59,127.3,M,-33.0,M,,*4C (blinky src/gps/reader.rs:106)
10.430450 [INFO ] got full sentence: $GNGSA,A,3,10,32,28,23,25,12,02,31,24,,,,1.08,0.59,0.91,1*05 (blinky src/gps/reader.rs:106)
10.513214 [INFO ] parsing gps (blinky blinky/src/main.rs:74)
10.513244 [INFO ] GPS (blinky blinky/src/main.rs:80)
10.517700 [INFO ] got full sentence: $GNVTG,0.00,T,,M,0.03,N,0.05,K,A*25 (blinky src/gps/reader.rs:106)
10.613800 [INFO ] parsing gps (blinky blinky/src/main.rs:74)
10.613830 [INFO ] NO SIGNAL AT ALL (blinky blinky/src/main.rs:104)
10.714385 [INFO ] parsing gps (blinky blinky/src/main.rs:74)
10.714416 [INFO ] NO SIGNAL AT ALL (blinky blinky/src/main.rs:104)
11.419067 [INFO ] got full sentence: $GNGGA,184044.000,3548.7128,N,07847.4079,W,1,24,0.59,127.3,M,-33.0,M,,*4D (blinky src/gps/reader.rs:106)
11.428894 [INFO ] got full sentence: $GNGSA,A,3,10,32,28,23,25,12,02,31,24,,,,1.08,0.59,0.91,1*05 (blinky src/gps/reader.rs:106)
11.515014 [INFO ] parsing gps (blinky blinky/src/main.rs:74)
11.515045 [INFO ] GPS (blinky blinky/src/main.rs:80)
11.519165 [INFO ] got full sentence: $GNZDA,184044.000,07,09,2025,,*4E (blinky src/gps/reader.rs:106)
11.615478 [INFO ] parsing gps (blinky blinky/src/main.rs:74)
11.615509 [INFO ] NO SIGNAL AT ALL (blinky blinky/src/main.rs:104)
11.715942 [INFO ] parsing gps (blinky blinky/src/main.rs:74)
11.715972 [INFO ] NO SIGNAL AT ALL (blinky blinky/src/main.rs:104)
12.439971 [INFO ] got full sentence: $GNGGA,184045.000,3548.7128,N,07847.4080,W,1,24,0.59,127.2,M,-33.0,M,,*4B (blinky src/gps/reader.rs:106)
12.449768 [INFO ] got full sentence: $GNGSA,A,3,10,32,28,23,25,12,02,31,24,,,,1.08,0.59,0.91,1*05 (blinky src/gps/reader.rs:106)
12.516448 [INFO ] parsing gps (blinky blinky/src/main.rs:74)
12.516479 [INFO ] GPS (blinky blinky/src/main.rs:80)
12.524841 [INFO ] got full sentence: $GBGSV,3,2,09,46,28,188,,19,20,303,24,29,13,251,22,35,06,305,,1*72 (blinky src/gps/reader.rs:106)
12.617034 [INFO ] parsing gps (blinky blinky/src/main.rs:74)
12.617065 [INFO ] NO SIGNAL AT ALL (blinky blinky/src/main.rs:104)
12.717620 [INFO ] parsing gps (blinky blinky/src/main.rs:74)
12.717651 [INFO ] NO SIGNAL AT ALL (blinky blinky/src/main.rs:104)
13.433197 [INFO ] got full sentence: $GNGGA,184046.000,3548.7128,N,07847.4079,W,1,24,0.59,127.2,M,-33.0,M,,*4E (blinky src/gps/reader.rs:106)
13.442993 [INFO ] got full sentence: $GNGSA,A,3,10,32,28,23,25,12,02,31,24,,,,1.08,0.59,0.91,1*05 (blinky src/gps/reader.rs:106)
13.518249 [INFO ] parsing gps (blinky blinky/src/main.rs:74)
13.518280 [INFO ] GPS (blinky blinky/src/main.rs:80)
13.527008 [INFO ] got full sentence: $GNRMC,184046.000,A,3548.7128,N,07847.4079,W,0.10,0.00,070925,,,A,V*1F (blinky src/gps/reader.rs:106)
13.618713 [INFO ] parsing gps (blinky blinky/src/main.rs:74)
13.618743 [INFO ] NO SIGNAL AT ALL (blinky blinky/src/main.rs:104)
13.719177 [INFO ] parsing gps (blinky blinky/src/main.rs:74)
13.719207 [INFO ] NO SIGNAL AT ALL (blinky blinky/src/main.rs:104)
14.434600 [INFO ] got full sentence: $GNGGA,184047.000,3548.7128,N,07847.4080,W,1,24,0.59,127.2,M,-33.0,M,,*49 (blinky src/gps/reader.rs:106)
14.444427 [INFO ] got full sentence: $GNGSA,A,3,10,32,28,23,25,12,02,31,24,,,,1.08,0.59,0.91,1*05 (blinky src/gps/reader.rs:106)
14.519683 [INFO ] parsing gps (blinky blinky/src/main.rs:74)
14.519714 [INFO ] GPS (blinky blinky/src/main.rs:80)
14.528442 [INFO ] got full sentence: $GNRMC,184047.000,A,3548.7128,N,07847.4080,W,0.04,0.00,070925,,,A,V*1D (blinky src/gps/reader.rs:106)
14.620269 [INFO ] parsing gps (blinky blinky/src/main.rs:74)
14.620300 [INFO ] NO SIGNAL AT ALL (blinky blinky/src/main.rs:104)
14.720855 [INFO ] parsing gps (blinky blinky/src/main.rs:74)
14.720886 [INFO ] NO SIGNAL AT ALL (blinky blinky/src/main.rs:104)
15.439605 [INFO ] got full sentence: $GNGGA,184048.000,3548.7128,N,07847.4079,W,1,24,0.59,127.2,M,-33.0,M,,*40 (blinky src/gps/reader.rs:106)
15.449401 [INFO ] got full sentence: $GNGSA,A,3,10,32,28,23,25,12,02,31,24,,,,1.08,0.59,0.91,1*05 (blinky src/gps/reader.rs:106)
15.521484 [INFO ] parsing gps (blinky blinky/src/main.rs:74)
15.521514 [INFO ] GPS (blinky blinky/src/main.rs:80)
15.527191 [INFO ] got full sentence: $GBGSV,3,3,09,30,02,205,,1*49 (blinky src/gps/reader.rs:106)
15.621948 [INFO ] parsing gps (blinky blinky/src/main.rs:74)
15.621978 [INFO ] NO SIGNAL AT ALL (blinky blinky/src/main.rs:104)
15.722412 [INFO ] parsing gps (blinky blinky/src/main.rs:74)
15.722442 [INFO ] NO SIGNAL AT ALL (blinky blinky/src/main.rs:104)
16.423553 [INFO ] got full sentence: $GNGGA,184049.000,3548.7128,N,07847.4080,W,1,24,0.59,127.2,M,-33.0,M,,*47 (blinky src/gps/reader.rs:106)
16.433349 [INFO ] got full sentence: $GNGSA,A,3,10,32,28,23,25,12,02,31,24,,,,1.08,0.59,0.91,1*05 (blinky src/gps/reader.rs:106)
16.522918 [INFO ] parsing gps (blinky blinky/src/main.rs:74)
16.522949 [INFO ] GPS (blinky blinky/src/main.rs:80)
16.623504 [INFO ] parsing gps (blinky blinky/src/main.rs:74)
16.623535 [INFO ] NO SIGNAL AT ALL (blinky blinky/src/main.rs:104)
17.441528 [INFO ] got full sentence: $GNGGA,184050.000,3548.7128,N,07847.4079,W,1,24,0.59,127.2,M,-33.0,M,,*49 (blinky src/gps/reader.rs:106)
17.451324 [INFO ] got full sentence: $GNGSA,A,3,10,32,28,23,25,12,02,31,24,,,,1.08,0.59,0.91,1*05 (blinky src/gps/reader.rs:106)
17.524139 [INFO ] parsing gps (blinky blinky/src/main.rs:74)
17.524169 [INFO ] GPS (blinky blinky/src/main.rs:80)
17.529266 [INFO ] got full sentence: $GBGSV,3,3,09,30,02,205,,1*49 (blinky src/gps/reader.rs:106)
17.624603 [INFO ] parsing gps (blinky blinky/src/main.rs:74)
17.624633 [INFO ] NO SIGNAL AT ALL (blinky blinky/src/main.rs:104)
17.725067 [INFO ] parsing gps (blinky blinky/src/main.rs:74)
17.725097 [INFO ] NO SIGNAL AT ALL (blinky blinky/src/main.rs:104)
18.430511 [INFO ] got full sentence: $GNGGA,184051.000,3548.7128,N,07847.4080,W,1,24,0.59,127.2,M,-33.0,M,,*4E (blinky src/gps/reader.rs:106)
18.440307 [INFO ] got full sentence: $GNGSA,A,3,10,32,28,23,25,12,02,31,24,,,,1.08,0.59,0.91,1*05 (blinky src/gps/reader.rs:106)
18.525604 [INFO ] parsing gps (blinky blinky/src/main.rs:74)
18.525634 [INFO ] GPS (blinky blinky/src/main.rs:80)
18.530761 [INFO ] got full sentence: $GNZDA,184051.000,07,09,2025,,*4A (blinky src/gps/reader.rs:106)
18.626190 [INFO ] parsing gps (blinky blinky/src/main.rs:74)
18.626220 [INFO ] NO SIGNAL AT ALL (blinky blinky/src/main.rs:104)
18.726776 [INFO ] parsing gps (blinky blinky/src/main.rs:74)
18.726806 [INFO ] NO SIGNAL AT ALL (blinky blinky/src/main.rs:104)
19.430480 [INFO ] got full sentence: $GNGGA,184052.000,3548.7128,N,07847.4079,W,1,24,0.59,127.2,M,-33.0,M,,*4B (blinky src/gps/reader.rs:106)
19.440307 [INFO ] got full sentence: $GNGSA,A,3,10,32,28,23,25,12,02,31,24,,,,1.08,0.59,0.91,1*05 (blinky src/gps/reader.rs:106)
19.527404 [INFO ] parsing gps (blinky blinky/src/main.rs:74)
19.527435 [INFO ] GPS (blinky blinky/src/main.rs:80)
19.627868 [INFO ] parsing gps (blinky blinky/src/main.rs:74)
19.627899 [INFO ] NO SIGNAL AT ALL (blinky blinky/src/main.rs:104)
