0.037109 [INFO ] got full sentence: $GNGGA,184439.000,3548.7126,N,07847.4089,W,1,24,0.59,128.9,M,-33.0,M,,*47 (blinky src/gps/reader.rs:106)
0.046905 [INFO ] got full sentence: $GNGSA,A,3,10,32,28,23,25,12,02,31,24,,,,1.07,0.59,0.89,1*03 (blinky src/gps/reader.rs:106)
0.100494 [INFO ] parsing gps (blinky blinky/src/main.rs:74)
0.100555 [INFO ] GPS (blinky blinky/src/main.rs:78)
0.110015 [INFO ] got full sentence: $GAGSV,3,3,11,02,04,034,,08,02,076,,13,01,170,,7*4C (blinky src/gps/reader.rs:106)
0.200622 [INFO ] parsing gps (blinky blinky/src/main.rs:74)
0.200683 [INFO ] NO SIGNAL AT ALL ([ERR] $GNGSA,A,3,10,32,28,23,25,12,02,31,24,,,,1.07,0.59,0.89,1*03 bytes?) (blinky blinky/src/main.rs:88)
0.301116 [INFO ] parsing gps (blinky blinky/src/main.rs:74)
0.301177 [INFO ] NO SIGNAL AT ALL ([ERR] $GAGSV,3,3,11,02,04,034,,08,02,076,,13,01,170,,7*4C bytes?) (blinky blinky/src/main.rs:88)
1.035430 [INFO ] got full sentence: $GNGGA,184440.000,3548.7126,N,07847.4089,W,1,24,0.59,128.9,M,-33.0,M,,*49 (blinky src/gps/reader.rs:106)
1.045227 [INFO ] got full sentence: $GNGSA,A,3,10,32,28,23,25,12,02,31,24,,,,1.07,0.59,0.89,1*03 (blinky src/gps/reader.rs:106)
1.101593 [INFO ] parsing gps (blinky blinky/src/main.rs:74)
1.101654 [INFO ] GPS (blinky blinky/src/main.rs:78)
1.108337 [INFO ] got full sentence: $GAGSV,3,3,11,02,04,034,,08,02,076,,13,01,170,,7*4C (blinky src/gps/reader.rs:106)
1.202056 [INFO ] parsing gps (blinky blinky/src/main.rs:74)
1.202117 [INFO ] NO SIGNAL AT ALL ([ERR] $GNGSA,A,3,10,32,28,23,25,12,02,31,24,,,,1.07,0.59,0.89,1*03 bytes?) (blinky blinky/src/main.rs:88)
1.302856 [INFO ] parsing gps (blinky blinky/src/main.rs:74)
1.302917 [INFO ] NO SIGNAL AT ALL ([ERR] $GAGSV,3,3,11,02,04,034,,08,02,076,,13,01,170,,7*4C bytes?) (blinky blinky/src/main.rs:88)
2.052612 [INFO ] got full sentence: $GNGGA,184441.000,3548.7125,N,07847.4090,W,1,24,0.59,128.9,M,-33.0,M,,*43 (blinky src/gps/reader.rs:106)
2.062408 [INFO ] got full sentence: $GNGSA,A,3,10,32,28,23,25,12,02,31,24,,,,1.07,0.59,0.89,1*03 (blinky src/gps/reader.rs:106)
2.103668 [INFO ] parsing gps (blinky blinky/src/main.rs:74)
2.103729 [INFO ] GPS (blinky blinky/src/main.rs:78)
2.108428 [INFO ] got full sentence: $GLGSV,3,3,10,87,03,342,,84,01,201,,1*7E (blinky src/gps/reader.rs:106)
2.204254 [INFO ] parsing gps (blinky blinky/src/main.rs:74)
2.204315 [INFO ] NO SIGNAL AT ALL ([ERR] $GNGSA,A,3,10,32,28,23,25,12,02,31,24,,,,1.07,0.59,0.89,1*03 bytes?) (blinky blinky/src/main.rs:88)
2.305206 [INFO ] parsing gps (blinky blinky/src/main.rs:74)
2.305267 [INFO ] NO SIGNAL AT ALL ([ERR] $GLGSV,3,3,10,87,03,342,,84,01,201,,1*7E bytes?) (blinky blinky/src/main.rs:88)
3.039886 [INFO ] got full sentence: $GNGGA,184442.000,3548.7125,N,07847.4090,W,1,24,0.59,128.9,M,-33.0,M,,*40 (blinky src/gps/reader.rs:106)
3.049682 [INFO ] got full sentence: $GNGSA,A,3,10,32,28,23,25,12,02,31,24,,,,1.07,0.59,0.89,1*03 (blinky src/gps/reader.rs:106)
3.106079 [INFO ] parsing gps (blinky blinky/src/main.rs:74)
3.106140 [INFO ] GPS (blinky blinky/src/main.rs:78)
3.112792 [INFO ] got full sentence: $GAGSV,3,3,11,02,04,034,,08,02,076,,13,01,170,,7*4C (blinky src/gps/reader.rs:106)
3.206665 [INFO ] parsing gps (blinky blinky/src/main.rs:74)
3.206726 [INFO ] NO SIGNAL AT ALL ([ERR] $GNGSA,A,3,10,32,28,23,25,12,02,31,24,,,,1.07,0.59,0.89,1*03 bytes?) (blinky blinky/src/main.rs:88)
3.307617 [INFO ] parsing gps (blinky blinky/src/main.rs:74)
3.307678 [INFO ] NO SIGNAL AT ALL ([ERR] $GAGSV,3,3,11,02,04,034,,08,02,076,,13,01,170,,7*4C bytes?) (blinky blinky/src/main.rs:88)
4.042144 [INFO ] got full sentence: $GNGGA,184443.000,3548.7125,N,07847.4089,W,1,24,0.59,129.0,M,-33.0,M,,*41 (blinky src/gps/reader.rs:106)
4.051971 [INFO ] got full sentence: $GNGSA,A,3,10,32,28,23,25,12,02,31,24,,,,1.07,0.59,0.89,1*03 (blinky src/gps/reader.rs:106)
4.108551 [INFO ] parsing gps (blinky blinky/src/main.rs:74)
4.108612 [INFO ] GPS (blinky blinky/src/main.rs:78)
4.115051 [INFO ] got full sentence: $GAGSV,3,3,11,02,04,034,,08,02,076,,13,01,170,,7*4C (blinky src/gps/reader.rs:106)
4.209136 [INFO ] parsing gps (blinky blinky/src/main.rs:74)
4.209197 [INFO ] NO SIGNAL AT ALL ([ERR] $GNGSA,A,3,10,32,28,23,25,12,02,31,24,,,,1.07,0.59,0.89,1*03 bytes?) (blinky blinky/src/main.rs:88)
4.310089 [INFO ] parsing gps (blinky blinky/src/main.rs:74)
4.310150 [INFO ] NO SIGNAL AT ALL ([ERR] $GAGSV,3,3,11,02,04,034,,08,02,076,,13,01,170,,7*4C bytes?) (blinky blinky/src/main.rs:88)
5.043212 [INFO ] got full sentence: $GNGGA,184444.000,3548.7125,N,07847.4089,W,1,24,0.59,129.1,M,-33.0,M,,*47 (blinky src/gps/reader.rs:106)
5.053009 [INFO ] got full sentence: $GNGSA,A,3,10,32,28,25,23,12,02,31,24,,,,1.07,0.59,0.89,1*03 (blinky src/gps/reader.rs:106)
5.111022 [INFO ] parsing gps (blinky blinky/src/main.rs:74)
5.111083 [INFO ] GPS (blinky blinky/src/main.rs:78)
5.121246 [INFO ] got full sentence: $GBGSV,3,1,09,20,63,343,32,37,62,111,39,32,42,092,34,46,30,188,,1*7F (blinky src/gps/reader.rs:106)
5.211608 [INFO ] parsing gps (blinky blinky/src/main.rs:74)
5.211669 [INFO ] NO SIGNAL AT ALL ([ERR] $GNGSA,A,3,10,32,28,25,23,12,02,31,24,,,,1.07,0.59,0.89,1*03 bytes?) (blinky blinky/src/main.rs:88)
5.312530 [INFO ] parsing gps (blinky blinky/src/main.rs:74)
5.312591 [INFO ] NO SIGNAL AT ALL ([ERR] $GBGSV,3,1,09,20,63,343,32,37,62,111,39,32,42,092,34,46,30,188,,1*7F bytes?) (blinky blinky/src/main.rs:88)
6.035858 [INFO ] got full sentence: $GNGGA,184445.000,3548.7126,N,07847.4089,W,1,24,0.59,129.2,M,-33.0,M,,*46 (blinky src/gps/reader.rs:106)
6.045654 [INFO ] got full sentence: $GNGSA,A,3,10,32,28,23,25,12,02,31,24,,,,1.07,0.59,0.89,1*03 (blinky src/gps/reader.rs:106)
6.113555 [INFO ] parsing gps (blinky blinky/src/main.rs:74)
6.113616 [INFO ] GPS (blinky blinky/src/main.rs:78)
6.121093 [INFO ] got full sentence: $GBGSV,3,2,09,23,28,049,22,19,21,304,17,29,11,249,20,47,10,228,16,1*79 (blinky src/gps/reader.rs:106)
6.214019 [INFO ] parsing gps (blinky blinky/src/main.rs:74)
6.214080 [INFO ] NO SIGNAL AT ALL ([ERR] $GNGSA,A,3,10,32,28,23,25,12,02,31,24,,,,1.07,0.59,0.89,1*03 bytes?) (blinky blinky/src/main.rs:88)
6.314819 [INFO ] parsing gps (blinky blinky/src/main.rs:74)
6.314880 [INFO ] NO SIGNAL AT ALL ([ERR] $GBGSV,3,2,09,23,28,049,22,19,21,304,17,29,11,249,20,47,10,228,16,1*79 bytes?) (blinky blinky/src/main.rs:88)
7.034210 [INFO ] got full sentence: $GNGGA,184446.000,3548.7126,N,07847.4089,W,1,24,0.59,129.3,M,-33.0,M,,*44 (blinky src/gps/reader.rs:106)
7.044036 [INFO ] got full sentence: $GNGSA,A,3,10,32,28,23,25,12,02,31,24,,,,1.07,0.59,0.89,1*03 (blinky src/gps/reader.rs:106)
7.115722 [INFO ] parsing gps (blinky blinky/src/main.rs:74)
7.115783 [INFO ] GPS (blinky blinky/src/main.rs:78)
7.122314 [INFO ] got full sentence: $GBGSV,3,3,09,35,06,303,14,1*4A (blinky src/gps/reader.rs:106)
7.216186 [INFO ] parsing gps (blinky blinky/src/main.rs:74)
7.216247 [INFO ] NO SIGNAL AT ALL ([ERR] $GNGSA,A,3,10,32,28,23,25,12,02,31,24,,,,1.07,0.59,0.89,1*03 bytes?) (blinky blinky/src/main.rs:88)
7.316986 [INFO ] parsing gps (blinky blinky/src/main.rs:74)
7.317047 [INFO ] NO SIGNAL AT ALL ([ERR] $GBGSV,3,3,09,35,06,303,14,1*4A bytes?) (blinky blinky/src/main.rs:88)
8.028503 [INFO ] got full sentence: $GNGGA,184447.000,3548.7125,N,07847.4089,W,1,24,0.59,129.2,M,-33.0,M,,*47 (blinky src/gps/reader.rs:106)
8.038299 [INFO ] got full sentence: $GNGSA,A,3,10,32,28,23,25,12,02,31,24,,,,1.07,0.59,0.89,1*03 (blinky src/gps/reader.rs:106)
8.117706 [INFO ] parsing gps (blinky blinky/src/main.rs:74)
8.117767 [INFO ] GPS (blinky blinky/src/main.rs:78)
8.126068 [INFO ] got full sentence: $GNVTG,0.00,T,,M,0.00,N,0.01,K,A*22 (blinky src/gps/reader.rs:106)
8.218292 [INFO ] parsing gps (blinky blinky/src/main.rs:74)
8.218353 [INFO ] NO SIGNAL AT ALL ([ERR] $GNGSA,A,3,10,32,28,23,25,12,02,31,24,,,,1.07,0.59,0.89,1*03 bytes?) (blinky blinky/src/main.rs:88)
8.319213 [INFO ] parsing gps (blinky blinky/src/main.rs:74)
8.319274 [INFO ] NO SIGNAL AT ALL ([ERR] $GNVTG,0.00,T,,M,0.00,N,0.01,K,A*22 bytes?) (blinky blinky/src/main.rs:88)
9.032836 [INFO ] got full sentence: $GNGGA,184448.000,3548.7125,N,07847.4089,W,1,24,0.59,129.3,M,-33.0,M,,*49 (blinky src/gps/reader.rs:106)
9.042663 [INFO ] got full sentence: $GNGSA,A,3,10,32,28,25,23,12,02,31,24,,,,1.07,0.59,0.89,1*03 (blinky src/gps/reader.rs:106)
9.120056 [INFO ] parsing gps (blinky blinky/src/main.rs:74)
9.120117 [INFO ] GPS (blinky blinky/src/main.rs:78)
9.129455 [INFO ] got full sentence: $GNVTG,0.00,T,,M,0.05,N,0.10,K,A*27 (blinky src/gps/reader.rs:106)
9.220642 [INFO ] parsing gps (blinky blinky/src/main.rs:74)
9.220703 [INFO ] NO SIGNAL AT ALL ([ERR] $GNGSA,A,3,10,32,28,25,23,12,02,31,24,,,,1.07,0.59,0.89,1*03 bytes?) (blinky blinky/src/main.rs:88)
9.321563 [INFO ] parsing gps (blinky blinky/src/main.rs:74)
9.321624 [INFO ] NO SIGNAL AT ALL ([ERR] $GNVTG,0.00,T,,M,0.05,N,0.10,K,A*27 bytes?) (blinky blinky/src/main.rs:88)
10.032409 [INFO ] got full sentence: $GNGGA,184449.000,3548.7125,N,07847.4089,W,1,24,0.59,129.4,M,-33.0,M,,*4F (blinky src/gps/reader.rs:106)
10.042236 [INFO ] got full sentence: $GNGSA,A,3,10,32,28,23,25,12,02,31,24,,,,1.07,0.59,0.89,1*03 (blinky src/gps/reader.rs:106)
10.122436 [INFO ] parsing gps (blinky blinky/src/main.rs:74)
10.122497 [INFO ] GPS (blinky blinky/src/main.rs:78)
10.129974 [INFO ] got full sentence: $GNVTG,0.00,T,,M,0.06,N,0.11,K,A*25 (blinky src/gps/reader.rs:106)
10.223022 [INFO ] parsing gps (blinky blinky/src/main.rs:74)
10.223083 [INFO ] NO SIGNAL AT ALL ([ERR] $GNGSA,A,3,10,32,28,23,25,12,02,31,24,,,,1.07,0.59,0.89,1*03 bytes?) (blinky blinky/src/main.rs:88)
10.323944 [INFO ] parsing gps (blinky blinky/src/main.rs:74)
10.324005 [INFO ] NO SIGNAL AT ALL ([ERR] $GNVTG,0.00,T,,M,0.06,N,0.11,K,A*25 bytes?) (blinky blinky/src/main.rs:88)
11.034759 [INFO ] got full sentence: $GNGGA,184450.000,3548.7125,N,07847.4089,W,1,24,0.59,129.5,M,-33.0,M,,*46 (blinky src/gps/reader.rs:106)
11.044586 [INFO ] got full sentence: $GNGSA,A,3,10,32,28,25,23,12,02,31,24,,,,1.07,0.59,0.89,1*03 (blinky src/gps/reader.rs:106)
11.124816 [INFO ] parsing gps (blinky blinky/src/main.rs:74)
11.124877 [INFO ] GPS (blinky blinky/src/main.rs:78)
11.130950 [INFO ] got full sentence: $GNZDA,184450.000,07,09,2025,,*4F (blinky src/gps/reader.rs:106)
11.225402 [INFO ] parsing gps (blinky blinky/src/main.rs:74)
11.225463 [INFO ] NO SIGNAL AT ALL ([ERR] $GNGSA,A,3,10,32,28,25,23,12,02,31,24,,,,1.07,0.59,0.89,1*03 bytes?) (blinky blinky/src/main.rs:88)
11.326324 [INFO ] parsing gps (blinky blinky/src/main.rs:74)
11.326385 [INFO ] NO SIGNAL AT ALL ([ERR] $GNZDA,184450.000,07,09,2025,,*4F bytes?) (blinky blinky/src/main.rs:88)
12.042327 [INFO ] got full sentence: $GNGGA,184451.000,3548.7125,N,07847.4089,W,1,24,0.59,129.5,M,-33.0,M,,*47 (blinky src/gps/reader.rs:106)
12.052124 [INFO ] got full sentence: $GNGSA,A,3,10,32,28,25,23,12,02,31,24,,,,1.07,0.59,0.89,1*03 (blinky src/gps/reader.rs:106)
12.127166 [INFO ] parsing gps (blinky blinky/src/main.rs:74)
12.127227 [INFO ] GPS (blinky blinky/src/main.rs:78)
12.135467 [INFO ] got full sentence: $GNVTG,0.00,T,,M,0.05,N,0.09,K,A*2F (blinky src/gps/reader.rs:106)
12.227752 [INFO ] parsing gps (blinky blinky/src/main.rs:74)
12.227813 [INFO ] NO SIGNAL AT ALL ([ERR] $GNGSA,A,3,10,32,28,25,23,12,02,31,24,,,,1.07,0.59,0.89,1*03 bytes?) (blinky blinky/src/main.rs:88)
12.328674 [INFO ] parsing gps (blinky blinky/src/main.rs:74)
12.328735 [INFO ] NO SIGNAL AT ALL ([ERR] $GNVTG,0.00,T,,M,0.05,N,0.09,K,A*2F bytes?) (blinky blinky/src/main.rs:88)
13.054351 [INFO ] got full sentence: $GNGGA,184452.000,3548.7126,N,07847.4089,W,1,24,0.59,129.6,M,-33.0,M,,*44 (blinky src/gps/reader.rs:106)
13.064178 [INFO ] got full sentence: $GNGSA,A,3,10,32,28,25,23,12,02,31,24,,,,1.07,0.59,0.89,1*03 (blinky src/gps/reader.rs:106)
13.129516 [INFO ] parsing gps (blinky blinky/src/main.rs:74)
13.129577 [INFO ] GPS (blinky blinky/src/main.rs:78)
13.137847 [INFO ] got full sentence: $GBGSV,3,3,09,35,06,303,14,1*4A (blinky src/gps/reader.rs:106)
13.229980 [INFO ] parsing gps (blinky blinky/src/main.rs:74)
13.230041 [INFO ] NO SIGNAL AT ALL ([ERR] $GNGSA,A,3,10,32,28,25,23,12,02,31,24,,,,1.07,0.59,0.89,1*03 bytes?) (blinky blinky/src/main.rs:88)
13.330780 [INFO ] parsing gps (blinky blinky/src/main.rs:74)
13.330841 [INFO ] NO SIGNAL AT ALL ([ERR] $GBGSV,3,3,09,35,06,303,14,1*4A bytes?) (blinky blinky/src/main.rs:88)
14.039642 [INFO ] got full sentence: $GNGGA,184453.000,3548.7126,N,07847.4088,W,1,24,0.59,129.6,M,-33.0,M,,*44 (blinky src/gps/reader.rs:106)
14.049438 [INFO ] got full sentence: $GNGSA,A,3,10,32,28,25,23,12,02,31,24,,,,1.07,0.59,0.89,1*03 (blinky src/gps/reader.rs:106)
14.131500 [INFO ] parsing gps (blinky blinky/src/main.rs:74)
14.131561 [INFO ] GPS (blinky blinky/src/main.rs:78)
14.136230 [INFO ] got full sentence: $GNVTG,0.00,T,,M,0.05,N,0.10,K,A*27 (blinky src/gps/reader.rs:106)
14.232086 [INFO ] parsing gps (blinky blinky/src/main.rs:74)
14.232147 [INFO ] NO SIGNAL AT ALL ([ERR] $GNGSA,A,3,10,32,28,25,23,12,02,31,24,,,,1.07,0.59,0.89,1*03 bytes?) (blinky blinky/src/main.rs:88)
14.333007 [INFO ] parsing gps (blinky blinky/src/main.rs:74)
14.333068 [INFO ] NO SIGNAL AT ALL ([ERR] $GNVTG,0.00,T,,M,0.05,N,0.10,K,A*27 bytes?) (blinky blinky/src/main.rs:88)
15.057800 [INFO ] got full sentence: $GNGGA,184454.000,3548.7126,N,07847.4088,W,1,24,0.59,129.6,M,-33.0,M,,*43 (blinky src/gps/reader.rs:106)
15.067626 [INFO ] got full sentence: $GNGSA,A,3,10,32,28,25,23,12,02,31,24,,,,1.07,0.59,0.89,1*03 (blinky src/gps/reader.rs:106)
15.133850 [INFO ] parsing gps (blinky blinky/src/main.rs:74)
15.133911 [INFO ] GPS (blinky blinky/src/main.rs:78)
15.142089 [INFO ] got full sentence: $GBGSV,3,2,09,23,28,049,22,19,21,304,19,29,11,249,20,47,10,228,17,1*76 (blinky src/gps/reader.rs:106)
15.234436 [INFO ] parsing gps (blinky blinky/src/main.rs:74)
15.234497 [INFO ] NO SIGNAL AT ALL ([ERR] $GNGSA,A,3,10,32,28,25,23,12,02,31,24,,,,1.07,0.59,0.89,1*03 bytes?) (blinky blinky/src/main.rs:88)
15.335357 [INFO ] parsing gps (blinky blinky/src/main.rs:74)
15.335418 [INFO ] NO SIGNAL AT ALL ([ERR] $GBGSV,3,2,09,23,28,049,22,19,21,304,19,29,11,249,20,47,10,228,17,1*76 bytes?) (blinky blinky/src/main.rs:88)
16.044921 [INFO ] got full sentence: $GNGGA,184455.000,3548.7127,N,07847.4088,W,1,24,0.59,129.6,M,-33.0,M,,*43 (blinky src/gps/reader.rs:106)
16.054748 [INFO ] got full sentence: $GNGSA,A,3,10,32,28,25,23,12,02,31,24,,,,1.07,0.59,0.89,1*03 (blinky src/gps/reader.rs:106)
16.136383 [INFO ] parsing gps (blinky blinky/src/main.rs:74)
16.136444 [INFO ] GPS (blinky blinky/src/main.rs:78)
16.141540 [INFO ] got full sentence: $GNVTG,0.00,T,,M,0.06,N,0.11,K,A*25 (blinky src/gps/reader.rs:106)
16.236968 [INFO ] parsing gps (blinky blinky/src/main.rs:74)
16.237030 [INFO ] NO SIGNAL AT ALL ([ERR] $GNGSA,A,3,10,32,28,25,23,12,02,31,24,,,,1.07,0.59,0.89,1*03 bytes?) (blinky blinky/src/main.rs:88)
16.337921 [INFO ] parsing gps (blinky blinky/src/main.rs:74)
16.337982 [INFO ] NO SIGNAL AT ALL ([ERR] $GNVTG,0.00,T,,M,0.06,N,0.11,K,A*25 bytes?) (blinky blinky/src/main.rs:88)
17.061553 [INFO ] got full sentence: $GNGGA,184456.000,3548.7127,N,07847.4088,W,1,24,0.59,129.7,M,-33.0,M,,*41 (blinky src/gps/reader.rs:106)
17.071380 [INFO ] got full sentence: $GNGSA,A,3,10,32,28,25,23,12,02,31,24,,,,1.07,0.59,0.89,1*03 (blinky src/gps/reader.rs:106)
17.138793 [INFO ] parsing gps (blinky blinky/src/main.rs:74)
17.138854 [INFO ] GPS (blinky blinky/src/main.rs:78)
17.145843 [INFO ] got full sentence: $GBGSV,3,2,09,23,28,049,24,19,21,304,20,29,11,249,18,47,10,228,16,1*70 (blinky src/gps/reader.rs:106)
17.239410 [INFO ] parsing gps (blinky blinky/src/main.rs:74)
17.239471 [INFO ] NO SIGNAL AT ALL ([ERR] $GNGSA,A,3,10,32,28,25,23,12,02,31,24,,,,1.07,0.59,0.89,1*03 bytes?) (blinky blinky/src/main.rs:88)
17.340362 [INFO ] parsing gps (blinky blinky/src/main.rs:74)
17.340423 [INFO ] NO SIGNAL AT ALL ([ERR] $GBGSV,3,2,09,23,28,049,24,19,21,304,20,29,11,249,18,47,10,228,16,1*70 bytes?) (blinky blinky/src/main.rs:88)
18.050598 [INFO ] got full sentence: $GNGGA,184457.000,3548.7128,N,07847.4088,W,1,24,0.59,129.8,M,-33.0,M,,*40 (blinky src/gps/reader.rs:106)
18.060424 [INFO ] got full sentence: $GNGSA,A,3,10,32,28,25,23,12,02,31,24,,,,1.07,0.59,0.89,1*03 (blinky src/gps/reader.rs:106)
18.141387 [INFO ] parsing gps (blinky blinky/src/main.rs:74)
18.141448 [INFO ] GPS (blinky blinky/src/main.rs:78)
18.147216 [INFO ] got full sentence: $GNVTG,0.00,T,,M,0.09,N,0.16,K,A*2D (blinky src/gps/reader.rs:106)
18.242065 [INFO ] parsing gps (blinky blinky/src/main.rs:74)
18.242126 [INFO ] NO SIGNAL AT ALL ([ERR] $GNGSA,A,3,10,32,28,25,23,12,02,31,24,,,,1.07,0.59,0.89,1*03 bytes?) (blinky blinky/src/main.rs:88)
18.343078 [INFO ] parsing gps (blinky blinky/src/main.rs:74)
18.343139 [INFO ] NO SIGNAL AT ALL ([ERR] $GNVTG,0.00,T,,M,0.09,N,0.16,K,A*2D bytes?) (blinky blinky/src/main.rs:88)
19.043701 [INFO ] got full sentence: $GNGGA,184458.000,3548.7127,N,07847.4088,W,1,24,0.59,129.7,M,-33.0,M,,*4F (blinky src/gps/reader.rs:106)
19.044891 [INFO ] parsing gps (blinky blinky/src/main.rs:74)
19.044921 [INFO ] GPS (blinky blinky/src/main.rs:78)
19.053527 [INFO ] got full sentence: $GNGSA,A,3,10,32,28,25,23,12,02,31,24,,,,1.07,0.59,0.89,1*03 (blinky src/gps/reader.rs:106)
19.062713 [INFO ] got full sentence: $GNGSA,A,3,29,07,33,26,30,,,,,,,,1.07,0.59,0.89,3*03 (blinky src/gps/reader.rs:106)
19.145477 [INFO ] parsing gps (blinky blinky/src/main.rs:74)
19.145538 [INFO ] NO SIGNAL AT ALL ([ERR] $GNGSA,A,3,10,32,28,25,23,12,02,31,24,,,,1.07,0.59,0.89,1*03 bytes?) (blinky blinky/src/main.rs:88)
19.246429 [INFO ] parsing gps (blinky blinky/src/main.rs:74)
19.246490 [INFO ] NO SIGNAL AT ALL ([ERR] $GNGSA,A,3,29,07,33,26,30,,,,,,,,1.07,0.59,0.89,3*03 bytes?) (blinky blinky/src/main.rs:88)
20.043426 [INFO ] got full sentence: $GNGGA,184459.000,3548.7128,N,07847.4088,W,1,24,0.59,129.8,M,-33.0,M,,*4E (blinky src/gps/reader.rs:106)
20.047393 [INFO ] parsing gps (blinky blinky/src/main.rs:74)
20.047454 [INFO ] GPS (blinky blinky/src/main.rs:78)
20.053253 [INFO ] got full sentence: $GSA,A,3,10,32,28,25,23,12,02,31,24,,,,1.07,0.59,0.89,1*03 (blinky src/gps/reader.rs:106)
20.062438 [INFO ] got full sentence: $GNGSA,A,3,29,07,33,26,30,,,,,,,,1.07,0.59,0.89,3*03 (blinky src/gps/reader.rs:106)
20.148071 [INFO ] parsing gps (blinky blinky/src/main.rs:74)
20.148132 [INFO ] NO SIGNAL AT ALL ([ERR] $GSA,A,3,10,32,28,25,23,12,02,31,24,,,,1.07,0.59,0.89,1*03 bytes?) (blinky blinky/src/main.rs:88)
20.249084 [INFO ] parsing gps (blinky blinky/src/main.rs:74)
20.249145 [INFO ] NO SIGNAL AT ALL ([ERR] $GNGSA,A,3,29,07,33,26,30,,,,,,,,1.07,0.59,0.89,3*03 bytes?) (blinky blinky/src/main.rs:88)
21.046722 [INFO ] got full sentence: $GNGGA,184500.000,3548.7128,N,07847.4087,W,1,24,0.59,130.0,M,-33.0,M,,*4C (blinky src/gps/reader.rs:106)
21.050109 [INFO ] parsing gps (blinky blinky/src/main.rs:74)
21.050170 [INFO ] GPS (blinky blinky/src/main.rs:78)
21.056518 [INFO ] got full sentence: $GNGSA,A,3,10,32,28,25,23,12,02,31,24,,,,1.07,0.59,0.89,1*03 (blinky src/gps/reader.rs:106)
21.065734 [INFO ] got full sentence: $GNGSA,A,3,29,07,33,26,30,,,,,,,,1.07,0.59,0.89,3*03 (blinky src/gps/reader.rs:106)
21.150848 [INFO ] parsing gps (blinky blinky/src/main.rs:74)
21.150909 [INFO ] NO SIGNAL AT ALL ([ERR] $GNGSA,A,3,10,32,28,25,23,12,02,31,24,,,,1.07,0.59,0.89,1*03 bytes?) (blinky blinky/src/main.rs:88)
21.251922 [INFO ] parsing gps (blinky blinky/src/main.rs:74)
21.251983 [INFO ] NO SIGNAL AT ALL ([ERR] $GNGSA,A,3,29,07,33,26,30,,,,,,,,1.07,0.59,0.89,3*03 bytes?) (blinky blinky/src/main.rs:88)
