0.426788 [INFO ] got full sentence: $GNGSA,A,3,10,32,28,25,31,12,23,02,,,,,0.92,0.59,0.70,1*0E (blinky src/gps/reader.rs:115)
0.427154 [INFO ] parse failed: $GNGSA,A,3,10,32,28,25,31,12,23,02,,,,,0.92,0.59,0.70,1*0E (blinky src/gps/reader.rs:119)
0.436157 [INFO ] got full sentence: $GNGSA,A,3,29,33,07,27,26,30,,,,,,,0.92,0.59,0.70,3*0D (blinky src/gps/reader.rs:115)
0.509582 [INFO ] parse failed: $GNRMC,190906.000,A,3548.7133,N,07847.4096,W,0.27,31.77,070925,,,A,V*2A (blinky src/gps/reader.rs:119)
0.458129 [INFO ] got full sentence: $GPGSV,3,3,11,01,11,319,15,26,02,191,,24,01,051,,1*56 (blinky src/gps/reader.rs:115)
0.458465 [INFO ] parse failed: $GPGSV,3,3,11,01,11,319,15,26,02,191,,24,01,051,,1*56 (blinky src/gps/reader.rs:119)
0.470092 [INFO ] got full sentence: $GLGSV,3,2,09,69,22,092,19,79,20,032,17,86,20,291,22,85,12,234,,1*7A (blinky src/gps/reader.rs:115)
0.470520 [INFO ] parse failed: $GLGSV,3,2,09,69,22,092,19,79,20,032,17,86,20,291,22,85,12,234,,1*7A (blinky src/gps/reader.rs:119)
0.479034 [INFO ] got full sentence: $GAGSV,3,1,09,29,62,326,26,33,42,263,26,07,41,061,29,27,32,129,26,7*75 (blinky src/gps/reader.rs:115)
0.479461 [INFO ] parse failed: $GAGSV,3,1,09,29,62,326,26,33,42,263,26,07,41,061,29,27,32,129,26,7*75 (blinky src/gps/reader.rs:119)
0.487976 [INFO ] got full sentence: $GAGSV,3,3,09,21,07,176,,7*4E (blinky src/gps/reader.rs:115)
0.488220 [INFO ] parse failed: $GAGSV,3,3,09,21,07,176,,7*4E (blinky src/gps/reader.rs:119)
0.494049 [INFO ] got full sentence: $GBGSV,3,1,09,20,69,000,26,37,63,089,36,46,40,189,,32,37,102,31,1*73 (blinky src/gps/reader.rs:115)
0.494476 [INFO ] parse failed: $GBGSV,3,1,09,20,69,000,26,37,63,089,36,46,40,189,,32,37,102,31,1*73 (blinky src/gps/reader.rs:119)
0.500518 [INFO ] parsing gps (blinky blinky/src/main.rs:74)
0.500579 [INFO ] GPS (blinky blinky/src/main.rs:78)
0.502838 [INFO ] got full sentence: $GBGSV,3,3,09,35,04,295,,1*43 (blinky src/gps/reader.rs:115)
0.503051 [INFO ] parse failed: $GBGSV,3,3,09,35,04,295,,1*43 (blinky src/gps/reader.rs:119)
0.509155 [INFO ] got full sentence: $GNRMC,190906.000,A,3548.7133,N,07847.4096,W,0.27,31.77,070925,,,A,V*2A (blinky src/gps/reader.rs:115)
0.509582 [INFO ] parse failed: $GNRMC,190906.000,A,3548.7133,N,07847.4096,W,0.27,31.77,070925,,,A,V*2A (blinky src/gps/reader.rs:119)
0.515502 [INFO ] got full sentence: $GNZDA,190906.000,07,09,2025,,*44 (blinky src/gps/reader.rs:115)
0.600646 [INFO ] parsing gps (blinky blinky/src/main.rs:74)
0.600708 [INFO ] NO SIGNAL AT ALL [ERR] $GNZDA,190906.000,07,09,2025,,*44 (blinky blinky/src/main.rs:88)
1.414459 [INFO ] got full sentence: $GNGGA,190907.000,3548.7133,N,07847.4096,W,1,23,0.59,129.7,M,-33.0,M,,*40 (blinky src/gps/reader.rs:115)
1.424072 [INFO ] got full sentence: $GNGSA,A,3,10,32,28,25,31,12,23,02,,,,,0.92,0.59,0.70,1*0E (blinky src/gps/reader.rs:115)
1.424438 [INFO ] parse failed: $GNGSA,A,3,10,32,28,25,31,12,23,02,,,,,0.92,0.59,0.70,1*0E (blinky src/gps/reader.rs:119)
1.433441 [INFO ] got full sentence: $GNGSA,A,3,29,33,07,27,26,30,,,,,,,0.92,0.59,0.70,3*0D (blinky src/gps/reader.rs:115)
1.433807 [INFO ] parse failed: $GNGSA,A,3,29,33,07,27,26,30,,,,,,,0.92,0.59,0.70,3*0D (blinky src/gps/reader.rs:119)
1.444396 [INFO ] got full sentence: $GPGSV,3,1,11,10,71,142,37,32,65,001,36,28,64,237,43,25,40,097,19,1*68 (blinky src/gps/reader.rs:115)
1.444824 [INFO ] parse failed: $GPGSV,3,1,11,10,71,142,37,32,65,001,36,28,64,237,43,25,40,097,19,1*68 (blinky src/gps/reader.rs:119)
1.455413 [INFO ] got full sentence: $GPGSV,3,3,11,01,11,319,14,26,02,191,,24,01,051,,1*57 (blinky src/gps/reader.rs:115)
1.455749 [INFO ] parse failed: $GPGSV,3,3,11,01,11,319,14,26,02,191,,24,01,051,,1*57 (blinky src/gps/reader.rs:119)
1.467407 [INFO ] got full sentence: $GLGSV,3,2,09,69,22,092,18,79,20,032,16,86,20,291,22,85,12,234,,1*7A (blinky src/gps/reader.rs:115)
1.467803 [INFO ] parse failed: $GLGSV,3,2,09,69,22,092,18,79,20,032,16,86,20,291,22,85,12,234,,1*7A (blinky src/gps/reader.rs:119)
1.476348 [INFO ] got full sentence: $GAGSV,3,1,09,29,62,326,25,33,42,263,27,07,41,061,29,27,32,129,27,7*76 (blinky src/gps/reader.rs:115)
1.476745 [INFO ] parse failed: $GAGSV,3,1,09,29,62,326,25,33,42,263,27,07,41,061,29,27,32,129,27,7*76 (blinky src/gps/reader.rs:119)
1.485290 [INFO ] got full sentence: $GAGSV,3,3,09,21,07,176,,7*4E (blinky src/gps/reader.rs:115)
1.485504 [INFO ] parse failed: $GAGSV,3,3,09,21,07,176,,7*4E (blinky src/gps/reader.rs:119)
1.491363 [INFO ] got full sentence: $GBGSV,3,1,09,20,69,000,26,37,63,089,37,46,40,189,,32,37,102,31,1*72 (blinky src/gps/reader.rs:115)
1.491760 [INFO ] parse failed: $GBGSV,3,1,09,20,69,000,26,37,63,089,37,46,40,189,,32,37,102,31,1*72 (blinky src/gps/reader.rs:119)
1.499938 [INFO ] got full sentence: $GBGSV,3,3,09,35,04,295,,1*43 (blinky src/gps/reader.rs:115)
1.500183 [INFO ] parse failed: $GBGSV,3,3,09,35,04,295,,1*43 (blinky src/gps/reader.rs:119)
1.501037 [INFO ] parsing gps (blinky blinky/src/main.rs:74)
1.501098 [INFO ] GPS (blinky blinky/src/main.rs:78)
1.506286 [INFO ] got full sentence: $GNRMC,190907.000,A,3548.7133,N,07847.4096,W,0.13,31.77,070925,,,A,V*2C (blinky src/gps/reader.rs:115)
1.506713 [INFO ] parse failed: $GNRMC,190907.000,A,3548.7133,N,07847.4096,W,0.13,31.77,070925,,,A,V*2C (blinky src/gps/reader.rs:119)
1.512634 [INFO ] got full sentence: $GNZDA,190907.000,07,09,2025,,*45 (blinky src/gps/reader.rs:115)
1.601501 [INFO ] parsing gps (blinky blinky/src/main.rs:74)
1.601562 [INFO ] NO SIGNAL AT ALL [ERR] $GNZDA,190907.000,07,09,2025,,*45 (blinky blinky/src/main.rs:88)
2.493652 [INFO ] got full sentence: $GBGSV,3,1,09,20,69,000,27,37,63,089,37,46,40,189,,32,37,102,31,1*73 (blinky src/gps/reader.rs:115)
2.494079 [INFO ] parse failed: $GBGSV,3,1,09,20,69,000,27,37,63,089,37,46,40,189,,32,37,102,31,1*73 (blinky src/gps/reader.rs:119)
2.502227 [INFO ] parsing gps (blinky blinky/src/main.rs:74)
2.502288 [INFO ] GPS (blinky blinky/src/main.rs:78)
2.508575 [INFO ] got full sentence: $GNRMC190908.000,A,3548.7134,N,07847.4096,W,0.06,31.77,070925,,,A,V*20 (blinky src/gps/reader.rs:115)
2.509002 [INFO ] parse failed: $GNRMC190908.000,A,3548.7134,N,07847.4096,W,0.06,31.77,070925,,,A,V*20 (blinky src/gps/reader.rs:119)
2.514923 [INFO ] got full sentence: $GNZDA,190908.000,07,09,2025,,*4A (blinky src/gps/reader.rs:115)
2.602844 [INFO ] parsing gps (blinky blinky/src/main.rs:74)
2.602905 [INFO ] NO SIGNAL AT ALL [ERR] $GNZDA,190908.000,07,09,2025,,*4A (blinky blinky/src/main.rs:88)
3.497772 [INFO ] got full sentence: $GBGSV,3,1,09,20,69,000,27,37,63,089,37,46,40,189,,32,37,102,30,1*72 (blinky src/gps/reader.rs:115)
3.498168 [INFO ] parse failed: $GBGSV,3,1,09,20,69,000,27,37,63,089,37,46,40,189,,32,37,102,30,1*72 (blinky src/gps/reader.rs:119)
3.503692 [INFO ] parsing gps (blinky blinky/src/main.rs:74)
3.503753 [INFO ] GPS (blinky blinky/src/main.rs:78)
3.506347 [INFO ] got full sentence: $GBGSV,3,3,09,35,04,295,,1*43 (blinky src/gps/reader.rs:115)
3.506561 [INFO ] parse failed: $GBGSV,3,3,09,35,04,295,,1*43 (blinky src/gps/reader.rs:119)
3.512695 [INFO ] got full sentence: $GNRMC,190909.000,A,3548.7133,N,07847.4096,W,0.35,31.77,070925,,,A,V*26 (blinky src/gps/reader.rs:115)
3.513122 [INFO ] parse failed: $GNRMC,190909.000,A,3548.7133,N,07847.4096,W,0.35,31.77,070925,,,A,V*26 (blinky src/gps/reader.rs:119)
3.519012 [INFO ] got full sentence: $GNZDA,190909.000,07,09,2025,,*4B (blinky src/gps/reader.rs:115)
3.604156 [INFO ] parsing gps (blinky blinky/src/main.rs:74)
3.604217 [INFO ] NO SIGNAL AT ALL [ERR] $GNZDA,190909.000,07,09,2025,,*4B (blinky blinky/src/main.rs:88)
4.419311 [INFO ] got full sentence: $GNGGA,190910.000,3548.7133,N,07847.4096,W,1,23,0.59,129.7,M,-33.0,M,,*46 (blinky src/gps/reader.rs:115)
4.428955 [INFO ] got full sentence: $GNGSA,A,3,10,32,28,25,31,12,23,02,,,,,0.92,0.59,0.70,1*0E (blinky src/gps/reader.rs:115)
4.429321 [INFO ] parse failed: $GNGSA,A,3,10,32,28,25,31,12,23,02,,,,,0.92,0.59,0.70,1*0E (blinky src/gps/reader.rs:119)
4.438323 [INFO ] got full sentence: $GNGSA,A,3,29,33,07,27,26,30,,,,,,,0.92,0.59,0.70,3*0D (blinky src/gps/reader.rs:115)
4.438659 [INFO ] parse failed: $GNGSA,A,3,29,33,07,27,26,30,,,,,,,0.92,0.59,0.70,3*0D (blinky src/gps/reader.rs:119)
4.449249 [INFO ] got full sentence: $GPGSV,3,1,11,10,71,142,37,32,65,001,36,28,64,237,43,25,40,097,17,1*66 (blinky src/gps/reader.rs:115)
4.449676 [INFO ] parse failed: $GPGSV,3,1,11,10,71,142,37,32,65,001,36,28,64,237,43,25,40,097,17,1*66 (blinky src/gps/reader.rs:119)
4.460296 [INFO ] got full sentence: $GPGSV,3,3,11,01,11,319,14,26,02,191,,24,01,051,,1*57 (blinky src/gps/reader.rs:115)
4.460632 [INFO ] parse failed: $GPGSV,3,3,11,01,11,319,14,26,02,191,,24,01,051,,1*57 (blinky src/gps/reader.rs:119)
4.472259 [INFO ] got full sentence: $GLGSV,3,2,09,69,22,092,19,79,20,032,16,86,20,291,23,85,12,234,,1*7A (blinky src/gps/reader.rs:115)
4.472686 [INFO ] parse failed: $GLGSV,3,2,09,69,22,092,19,79,20,032,16,86,20,291,23,85,12,234,,1*7A (blinky src/gps/reader.rs:119)
4.481201 [INFO ] got full sentence: $GAGSV,3,1,09,29,62,326,25,33,42,263,28,07,41,061,29,27,32,129,27,7*79 (blinky src/gps/reader.rs:115)
4.481628 [INFO ] parse failed: $GAGSV,3,1,09,29,62,326,25,33,42,263,28,07,41,061,29,27,32,129,27,7*79 (blinky src/gps/reader.rs:119)
4.490142 [INFO ] got full sentence: $GAGSV,3,3,09,21,07,176,,7*4E (blinky src/gps/reader.rs:115)
4.490386 [INFO ] parse failed: $GAGSV,3,3,09,21,07,176,,7*4E (blinky src/gps/reader.rs:119)
4.496215 [INFO ] got full sentence: $GBGSV,3,1,09,20,70,003,28,37,63,089,37,46,40,189,,32,37,102,31,1*77 (blinky src/gps/reader.rs:115)
4.496643 [INFO ] parse failed: $GBGSV,3,1,09,20,70,003,28,37,63,089,37,46,40,189,,32,37,102,31,1*77 (blinky src/gps/reader.rs:119)
4.504821 [INFO ] got full sentence: $GBGSV,3,3,09,35,04,295,,1*43 (blinky src/gps/reader.rs:115)
4.505065 [INFO ] parse failed: $GBGSV,3,3,09,35,04,295,,1*43 (blinky src/gps/reader.rs:119)
4.505371 [INFO ] parsing gps (blinky blinky/src/main.rs:74)
4.505432 [INFO ] GPS (blinky blinky/src/main.rs:78)
4.511169 [INFO ] got full sentence: $GNRMC,190910.000,A,3548.7133,N,07847.4096,W,0.24,31.77,070925,,,A,V*2E (blinky src/gps/reader.rs:115)
4.511596 [INFO ] parse failed: $GNRMC,190910.000,A,3548.7133,N,07847.4096,W,0.24,31.77,070925,,,A,V*2E (blinky src/gps/reader.rs:119)
4.517486 [INFO ] got full sentence: $GNZDA,190910.000,07,09,2025,,*43 (blinky src/gps/reader.rs:115)
4.605865 [INFO ] parsing gps (blinky blinky/src/main.rs:74)
4.605926 [INFO ] NO SIGNAL AT ALL [ERR] $GNZDA,190910.000,07,09,2025,,*43 (blinky blinky/src/main.rs:88)
5.419677 [INFO ] got full sentence: $GNGGA,190911.000,3548.7133,N,07847.4095,W,1,23,0.59,129.7,M,-33.0,M,,*44 (blinky src/gps/reader.rs:115)
5.429321 [INFO ] got full sentence: $GNGSA,A,3,10,32,28,25,31,12,23,02,,,,,0.92,0.59,0.70,1*0E (blinky src/gps/reader.rs:115)
5.429687 [INFO ] parse failed: $GNGSA,A,3,10,32,28,25,31,12,23,02,,,,,0.92,0.59,0.70,1*0E (blinky src/gps/reader.rs:119)
5.438690 [INFO ] got full sentence: $GNGSA,A,3,29,33,07,27,26,30,,,,,,,0.92,0.59,0.70,3*0D (blinky src/gps/reader.rs:115)
5.439056 [INFO ] parse failed: $GNGSA,A,3,29,33,07,27,26,30,,,,,,,0.92,0.59,0.70,3*0D (blinky src/gps/reader.rs:119)
5.449645 [INFO ] got full sentence: $GPGSV,3,1,11,10,71,142,37,32,65,001,36,28,64,237,43,25,40,097,18,1*69 (blinky src/gps/reader.rs:115)
5.450042 [INFO ] parse failed: $GPGSV,3,1,11,10,71,142,37,32,65,001,36,28,64,237,43,25,40,097,18,1*69 (blinky src/gps/reader.rs:119)
5.460662 [INFO ] got full sentence: $GPGSV,3,3,11,01,11,319,14,26,02,191,,24,01,051,,1*57 (blinky src/gps/reader.rs:115)
5.460998 [INFO ] parse failed: $GPGSV,3,3,11,01,11,319,14,26,02,191,,24,01,051,,1*57 (blinky src/gps/reader.rs:119)
5.472625 [INFO ] got full sentence: $GLGSV,3,2,09,69,22,092,19,79,20,032,15,86,20,291,23,85,12,234,,1*79 (blinky src/gps/reader.rs:115)
5.473052 [INFO ] parse failed: $GLGSV,3,2,09,69,22,092,19,79,20,032,15,86,20,291,23,85,12,234,,1*79 (blinky src/gps/reader.rs:119)
5.481567 [INFO ] got full sentence: $GAGSV,3,1,09,29,62,326,25,33,42,263,28,07,41,061,29,27,32,129,27,7*79 (blinky src/gps/reader.rs:115)
5.481994 [INFO ] parse failed: $GAGSV,3,1,09,29,62,326,25,33,42,263,28,07,41,061,29,27,32,129,27,7*79 (blinky src/gps/reader.rs:119)
5.490509 [INFO ] got full sentence: $GAGSV,3,3,09,21,07,176,,7*4E (blinky src/gps/reader.rs:115)
5.490753 [INFO ] parse failed: $GAGSV,3,3,09,21,07,176,,7*4E (blinky src/gps/reader.rs:119)
5.496582 [INFO ] got full sentence: $GBGSV,3,1,09,20,70,003,27,37,63,089,37,46,40,189,,32,37,102,31,1*78 (blinky src/gps/reader.rs:115)
5.497009 [INFO ] parse failed: $GBGSV,3,1,09,20,70,003,27,37,63,089,37,46,40,189,,32,37,102,31,1*78 (blinky src/gps/reader.rs:119)
5.505187 [INFO ] got full sentence: $GBGSV,3,3,09,35,04,295,,1*43 (blinky src/gps/reader.rs:115)
5.505401 [INFO ] parse failed: $GBGSV,3,3,09,35,04,295,,1*43 (blinky src/gps/reader.rs:119)
5.506622 [INFO ] parsing gps (blinky blinky/src/main.rs:74)
5.506652 [INFO ] GPS (blinky blinky/src/main.rs:78)
5.511535 [INFO ] got full sentence: $GNRMC,190911.00,A,354.7133,N,07847.4095,W,0.12,31.77,070925,,,A,V*29 (blinky src/gps/reader.rs:115)
5.511932 [INFO ] parse failed: $GNRMC,190911.00,A,354.7133,N,07847.4095,W,0.12,31.77,070925,,,A,V*29 (blinky src/gps/reader.rs:119)
5.517852 [INFO ] got full sentence: $GNZDA,190911.000,07,09,2025,,*42 (blinky src/gps/reader.rs:115)
5.607208 [INFO ] parsing gps (blinky blinky/src/main.rs:74)
5.607269 [INFO ] NO SIGNAL AT ALL [ERR] $GNZDA,190911.000,07,09,2025,,*42 (blinky blinky/src/main.rs:88)
6.415527 [INFO ] got full sentence: $GNGGA,190912.000,3548.7133,N,07847.4095,W,1,22,0.61,129.7,M,-33.0,M,,*4D (blinky src/gps/reader.rs:115)
6.424987 [INFO ] got full sentence: $GNGSA,A,3,10,32,28,25,31,12,23,,,,,,0.94,0.61,0.71,1*00 (blinky src/gps/reader.rs:115)
6.425354 [INFO ] parse failed: $GNGSA,A,3,10,32,28,25,31,12,23,,,,,,0.94,0.61,0.71,1*00 (blinky src/gps/reader.rs:119)
6.434387 [INFO ] got full sentence: $GNGSA,A,3,29,33,07,27,26,30,,,,,,,0.94,0.61,0.71,3*01 (blinky src/gps/reader.rs:115)
6.434722 [INFO ] parse failed: $GNGSA,A,3,29,33,07,27,26,30,,,,,,,0.94,0.61,0.71,3*01 (blinky src/gps/reader.rs:119)
6.445312 [INFO ] got full sentence: $GPGSV,3,1,11,10,71,142,37,32,65,001,36,28,64,237,43,25,40,097,19,1*68 (blinky src/gps/reader.rs:115)
6.445739 [INFO ] parse failed: $GPGSV,3,1,11,10,71,142,37,32,65,001,36,28,64,237,43,25,40,097,19,1*68 (blinky src/gps/reader.rs:119)
6.456329 [INFO ] got full sentence: $GPGSV,3,3,11,01,11,319,14,26,02,191,,24,01,051,,1*57 (blinky src/gps/reader.rs:115)
6.456665 [INFO ] parse failed: $GPGSV,3,3,11,01,11,319,14,26,02,191,,24,01,051,,1*57 (blinky src/gps/reader.rs:119)
6.468322 [INFO ] got full sentence: $GLGSV,3,2,09,69,22,092,18,79,20,032,14,86,20,291,22,85,12,234,,1*78 (blinky src/gps/reader.rs:115)
6.468719 [INFO ] parse failed: $GLGSV,3,2,09,69,22,092,18,79,20,032,14,86,20,291,22,85,12,234,,1*78 (blinky src/gps/reader.rs:119)
6.477264 [INFO ] got full sentence: $GAGSV,3,1,09,29,62,326,25,33,42,263,29,07,41,061,28,27,32,129,27,7*79 (blinky src/gps/reader.rs:115)
6.477661 [INFO ] parse failed: $GAGSV,3,1,09,29,62,326,25,33,42,263,29,07,41,061,28,27,32,129,27,7*79 (blinky src/gps/reader.rs:119)
6.486206 [INFO ] got full sentence: $GAGSV,3,3,09,21,07,176,,7*4E (blinky src/gps/reader.rs:115)
6.486419 [INFO ] parse failed: $GAGSV,3,3,09,21,07,176,,7*4E (blinky src/gps/reader.rs:119)
6.492279 [INFO ] got full sentence: $GBGSV,3,1,09,20,70,003,27,37,63,089,36,46,40,189,,32,37,102,31,1*79 (blinky src/gps/reader.rs:115)
6.492675 [INFO ] parse failed: $GBGSV,3,1,09,20,70,003,27,37,63,089,36,46,40,189,,32,37,102,31,1*79 (blinky src/gps/reader.rs:119)
6.500854 [INFO ] got full sentence: $GBGSV,3,3,09,35,04,295,,1*43 (blinky src/gps/reader.rs:115)
6.501098 [INFO ] parse failed: $GBGSV,3,3,09,35,04,295,,1*43 (blinky src/gps/reader.rs:119)
6.507202 [INFO ] got full sentence: $GNRMC,190912.000,A,3548.7133,N,07847.4095,W,0.18,31.77,070925,,,A,V*20 (blinky src/gps/reader.rs:115)
6.507629 [INFO ] parse failed: $GNRMC,190912.000,A,3548.7133,N,07847.4095,W,0.18,31.77,070925,,,A,V*20 (blinky src/gps/reader.rs:119)
6.508148 [INFO ] parsing gps (blinky blinky/src/main.rs:74)
6.508209 [INFO ] GPS (blinky blinky/src/main.rs:78)
6.513549 [INFO ] got full sentence: $GNZDA,190912.000,07,09,2025,,*41 (blinky src/gps/reader.rs:115)
6.608764 [INFO ] parsing gps (blinky blinky/src/main.rs:74)
6.608825 [INFO ] NO SIGNAL AT ALL [ERR] $GNZDA,190912.000,07,09,2025,,*41 (blinky blinky/src/main.rs:88)
7.421264 [INFO ] got full sentence: $GNGGA,190913.000,3548.7133,N,07847.4095,W,1,23,0.59,129.7,M,-33.0,M,,*46 (blinky src/gps/reader.rs:115)
7.430877 [INFO ] got full sentence: $GNGSA,A,3,10,32,28,25,31,12,23,02,,,,,0.92,0.59,0.70,1*0E (blinky src/gps/reader.rs:115)
7.431243 [INFO ] parse failed: $GNGSA,A,3,10,32,28,25,31,12,23,02,,,,,0.92,0.59,0.70,1*0E (blinky src/gps/reader.rs:119)
7.440246 [INFO ] got full sentence: $GNGSA,A,3,29,33,07,27,26,30,,,,,,,0.92,0.59,0.70,3*0D (blinky src/gps/reader.rs:115)
7.440612 [INFO ] parse failed: $GNGSA,A,3,29,33,07,27,26,30,,,,,,,0.92,0.59,0.70,3*0D (blinky src/gps/reader.rs:119)
7.451202 [INFO ] got full sentence: $GPGSV,3,1,11,10,71,142,38,32,65,001,36,28,64,237,43,25,40,097,26,1*6B (blinky src/gps/reader.rs:115)
7.451629 [INFO ] parse failed: $GPGSV,3,1,11,10,71,142,38,32,65,001,36,28,64,237,43,25,40,097,26,1*6B (blinky src/gps/reader.rs:119)
7.462219 [INFO ] got full sentence: $GPGSV,3,3,11,01,11,319,14,26,02,191,,24,01,051,,1*57 (blinky src/gps/reader.rs:115)
7.462554 [INFO ] parse failed: $GPGSV,3,3,11,01,11,319,14,26,02,191,,24,01,051,,1*57 (blinky src/gps/reader.rs:119)
7.474212 [INFO ] got full sentence: $GLGSV,3,2,09,69,22,092,18,79,20,032,13,86,20,291,23,85,12,234,,1*7E (blinky src/gps/reader.rs:115)
7.474609 [INFO ] parse failed: $GLGSV,3,2,09,69,22,092,18,79,20,032,13,86,20,291,23,85,12,234,,1*7E (blinky src/gps/reader.rs:119)
7.483154 [INFO ] got full sentence: $GAGSV,3,1,09,29,62,326,26,33,42,263,28,07,41,061,27,27,32,129,27,7*74 (blinky src/gps/reader.rs:115)
7.483551 [INFO ] parse failed: $GAGSV,3,1,09,29,62,326,26,33,42,263,28,07,41,061,27,27,32,129,27,7*74 (blinky src/gps/reader.rs:119)
7.492065 [INFO ] got full sentence: $GAGSV,3,3,09,21,07,176,,7*4E (blinky src/gps/reader.rs:115)
7.492309 [INFO ] parse failed: $GAGSV,3,3,09,21,07,176,,7*4E (blinky src/gps/reader.rs:119)
7.498168 [INFO ] got full sentence: $GBGSV,3,1,09,20,70,003,25,37,63,089,35,46,40,189,,32,37,102,31,1*78 (blinky src/gps/reader.rs:115)
7.498565 [INFO ] parse failed: $GBGSV,3,1,09,20,70,003,25,37,63,089,35,46,40,189,,32,37,102,31,1*78 (blinky src/gps/reader.rs:119)
7.506744 [INFO ] got full sentence: $GBGSV,3,3,09,35,04,295,,1*43 (blinky src/gps/reader.rs:115)
7.506988 [INFO ] parse failed: $GBGSV,3,3,09,35,04,295,,1*43 (blinky src/gps/reader.rs:119)
7.509613 [INFO ] parsing gps (blinky blinky/src/main.rs:74)
7.509674 [INFO ] GPS (blinky blinky/src/main.rs:78)
7.513092 [INFO ] got full sentence: $GNRMC,190913.000,A,3548.7133,N,847.45,W,0.21,31.77,070925,,,A,V*2B (blinky src/gps/reader.rs:115)
7.513488 [INFO ] parse failed: $GNRMC,190913.000,A,3548.7133,N,847.45,W,0.21,31.77,070925,,,A,V*2B (blinky src/gps/reader.rs:119)
7.519409 [INFO ] got full sentence: $GNZDA,190913.000,07,09,2025,,*40 (blinky src/gps/reader.rs:115)
7.610229 [INFO ] parsing gps (blinky blinky/src/main.rs:74)
7.610290 [INFO ] NO SIGNAL AT ALL [ERR] $GNZDA,190913.000,07,09,2025,,*40 (blinky blinky/src/main.rs:88)
8.498382 [INFO ] got full sentence: $GBGSV,3,1,09,20,70,003,26,37,63,089,35,46,40,189,,32,37,102,32,1*78 (blinky src/gps/reader.rs:115)
8.498809 [INFO ] parse failed: $GBGSV,3,1,09,20,70,003,26,37,63,089,35,46,40,189,,32,37,102,32,1*78 (blinky src/gps/reader.rs:119)
8.506988 [INFO ] got full sentence: $GBGSV,3,3,09,35,04,295,,1*43 (blinky src/gps/reader.rs:115)
8.507202 [INFO ] parse failed: $GBGSV,3,3,09,35,04,295,,1*43 (blinky src/gps/reader.rs:119)
8.511108 [INFO ] parsing gps (blinky blinky/src/main.rs:74)
8.511138 [INFO ] GPS (blinky blinky/src/main.rs:78)
8.513336 [INFO ] got full sentence: $GNRMC,190914.000,A,3548.7132,N,07847.4095,W,0.1,31.7,070925,,,A,V*2E (blinky src/gps/reader.rs:115)
8.513732 [INFO ] parse failed: $GNRMC,190914.000,A,3548.7132,N,07847.4095,W,0.1,31.7,070925,,,A,V*2E (blinky src/gps/reader.rs:119)
8.519653 [INFO ] got full sentence: $GNZDA,190914.000,07,09,2025,,*47 (blinky src/gps/reader.rs:115)
8.611694 [INFO ] parsing gps (blinky blinky/src/main.rs:74)
8.611755 [INFO ] NO SIGNAL AT ALL [ERR] $GNZDA,190914.000,07,09,2025,,*47 (blinky blinky/src/main.rs:88)
9.445556 [INFO ] got full sentence: $GNGGA,190915.000,3548.7132,N,07847.4094,W,1,23,0.59,129.7,M,-33.0,M,,*40 (blinky src/gps/reader.rs:115)
9.455200 [INFO ] got full sentence: $GNGSA,A,3,10,32,28,25,31,12,23,02,,,,,0.91,0.59,0.69,1*05 (blinky src/gps/reader.rs:115)
9.455566 [INFO ] parse failed: $GNGSA,A,3,10,32,28,25,31,12,23,02,,,,,0.91,0.59,0.69,1*05 (blinky src/gps/reader.rs:119)
9.464569 [INFO ] got full sentence: $GNGSA,A,3,29,33,07,27,26,30,,,,,,,0.91,0.59,0.69,3*06 (blinky src/gps/reader.rs:115)
9.464904 [INFO ] parse failed: $GNGSA,A,3,29,33,07,27,26,30,,,,,,,0.91,0.59,0.69,3*06 (blinky src/gps/reader.rs:119)
9.475494 [INFO ] got full sentence: $GPGSV,3,1,11,10,71,142,38,32,65,001,36,28,64,237,43,25,40,097,19,1*67 (blinky src/gps/reader.rs:115)
9.475921 [INFO ] parse failed: $GPGSV,3,1,11,10,71,142,38,32,65,001,36,28,64,237,43,25,40,097,19,1*67 (blinky src/gps/reader.rs:119)
9.486541 [INFO ] got full sentence: $GPGSV,3,3,11,01,11,319,14,26,02,191,,24,01,051,,1*57 (blinky src/gps/reader.rs:115)
9.486877 [INFO ] parse failed: $GPGSV,3,3,11,01,11,319,14,26,02,191,,24,01,051,,1*57 (blinky src/gps/reader.rs:119)
9.498504 [INFO ] got full sentence: $GLGSV,3,2,09,69,22,092,18,79,20,032,16,86,20,291,22,85,12,234,,1*7A (blinky src/gps/reader.rs:115)
9.498931 [INFO ] parse failed: $GLGSV,3,2,09,69,22,092,18,79,20,032,16,86,20,291,22,85,12,234,,1*7A (blinky src/gps/reader.rs:119)
9.507446 [INFO ] got full sentence: $GAGSV,3,1,09,29,62,326,26,33,42,263,28,07,41,061,27,27,32,129,28,7*7B (blinky src/gps/reader.rs:115)
9.507873 [INFO ] parse failed: $GAGSV,3,1,09,29,62,326,26,33,42,263,28,07,41,061,27,27,32,129,28,7*7B (blinky src/gps/reader.rs:119)
9.512542 [INFO ] parsing gps (blinky blinky/src/main.rs:74)
9.512603 [INFO ] GPS (blinky blinky/src/main.rs:78)
9.516387 [INFO ] got full sentence: $GAGSV,3,3,09,21,07,176,,7*4E (blinky src/gps/reader.rs:115)
9.516601 [INFO ] parse failed: $GAGSV,3,3,09,21,07,176,,7*4E (blinky src/gps/reader.rs:119)
9.522460 [INFO ] got full sentence: $GBGSV,3,1,09,20,70,003,26,37,63,089,35,46,40,189,,32,37,102,32,1*78 (blinky src/gps/reader.rs:115)
9.522888 [INFO ] parse failed: $GBGSV,3,1,09,20,70,003,26,37,63,089,35,46,40,189,,32,37,102,32,1*78 (blinky src/gps/reader.rs:119)
9.531066 [INFO ] got full sentence: $GBGSV,3,3,09,35,04,295,,1*43 (blinky src/gps/reader.rs:115)
9.531280 [INFO ] parse failed: $GBGSV,3,3,09,35,04,295,,1*43 (blinky src/gps/reader.rs:119)
9.537384 [INFO ] got full sentence: $GNRMC,190915.000,A,3548.7132,N,07847.4094,W,0.17,31.77,070925,,,A,V*28 (blinky src/gps/reader.rs:115)
9.537811 [INFO ] parse failed: $GNRMC,190915.000,A,3548.7132,N,07847.4094,W,0.17,31.77,070925,,,A,V*28 (blinky src/gps/reader.rs:119)
9.543731 [INFO ] got full sentence: $GNZDA,190915.000,07,09,2025,,*46 (blinky src/gps/reader.rs:115)
9.613220 [INFO ] parsing gps (blinky blinky/src/main.rs:74)
9.613281 [INFO ] NO SIGNAL AT ALL [ERR] $GNZDA,190915.000,07,09,2025,,*46 (blinky blinky/src/main.rs:88)
10.424438 [INFO ] got full sentence: $GNGGA,190916.000,3548.7132,N,07847.4094,W,1,23,0.59,129.7,M,-33.0,M,,*43 (blinky src/gps/reader.rs:115)
10.434082 [INFO ] got full sentence: $GNGSA,A,3,10,32,28,25,31,12,23,02,,,,,0.91,0.59,0.69,1*05 (blinky src/gps/reader.rs:115)
10.434448 [INFO ] parse failed: $GNGSA,A,3,10,32,28,25,31,12,23,02,,,,,0.91,0.59,0.69,1*05 (blinky src/gps/reader.rs:119)
10.443450 [INFO ] got full sentence: $GNGSA,A,3,29,33,07,27,26,30,,,,,,,0.91,0.59,0.69,3*06 (blinky src/gps/reader.rs:115)
10.443786 [INFO ] parse failed: $GNGSA,A,3,29,33,07,27,26,30,,,,,,,0.91,0.59,0.69,3*06 (blinky src/gps/reader.rs:119)
10.454376 [INFO ] got full sentence: $GPGSV,3,1,11,10,71,142,37,32,65,001,35,28,64,237,43,25,40,097,21,1*60 (blinky src/gps/reader.rs:115)
10.454803 [INFO ] parse failed: $GPGSV,3,1,11,10,71,142,37,32,65,001,35,28,64,237,43,25,40,097,21,1*60 (blinky src/gps/reader.rs:119)
10.465423 [INFO ] got full sentence: $GPGSV,3,3,11,01,11,319,13,26,02,191,,24,01,051,,1*50 (blinky src/gps/reader.rs:115)
10.465759 [INFO ] parse failed: $GPGSV,3,3,11,01,11,319,13,26,02,191,,24,01,051,,1*50 (blinky src/gps/reader.rs:119)
10.477386 [INFO ] got full sentence: $GLGSV,3,2,09,69,22,092,18,79,20,032,15,86,20,291,22,85,12,234,,1*79 (blinky src/gps/reader.rs:115)
10.477813 [INFO ] parse failed: $GLGSV,3,2,09,69,22,092,18,79,20,032,15,86,20,291,22,85,12,234,,1*79 (blinky src/gps/reader.rs:119)
10.486328 [INFO ] got full sentence: $GAGSV,3,1,09,29,62,326,26,33,42,263,28,07,41,061,27,27,32,129,28,7*7B (blinky src/gps/reader.rs:115)
10.486755 [INFO ] parse failed: $GAGSV,3,1,09,29,62,326,26,33,42,263,28,07,41,061,27,27,32,129,28,7*7B (blinky src/gps/reader.rs:119)
10.495269 [INFO ] got full sentence: $GAGSV,3,3,09,21,07,176,,7*4E (blinky src/gps/reader.rs:115)
10.495483 [INFO ] parse failed: $GAGSV,3,3,09,21,07,176,,7*4E (blinky src/gps/reader.rs:119)
10.501342 [INFO ] got full sentence: $GBGSV,3,1,09,20,70,003,25,37,63,089,36,46,40,189,,32,37,102,31,1*7B (blinky src/gps/reader.rs:115)
10.501770 [INFO ] parse failed: $GBGSV,3,1,09,20,70,003,25,37,63,089,36,46,40,189,,32,37,102,31,1*7B (blinky src/gps/reader.rs:119)
10.509948 [INFO ] got full sentence: $GBGSV,3,3,09,35,04,295,,1*43 (blinky src/gps/reader.rs:115)
10.510162 [INFO ] parse failed: $GBGSV,3,3,09,35,04,295,,1*43 (blinky src/gps/reader.rs:119)
10.514160 [INFO ] parsing gps (blinky blinky/src/main.rs:74)
10.514221 [INFO ] GPS (blinky blinky/src/main.rs:78)
10.516265 [INFO ] got full sentence: $GNRMC,190916.000,A,3548.7132,N,07847.4094,W,0.0,31.7770925,,,A,V*2E (blinky src/gps/reader.rs:115)
10.516693 [INFO ] parse failed: $GNRMC,190916.000,A,3548.7132,N,07847.4094,W,0.0,31.7770925,,,A,V*2E (blinky src/gps/reader.rs:119)
10.522613 [INFO ] got full sentence: $GNZDA,190916.000,07,09,2025,,*45 (blinky src/gps/reader.rs:115)
10.614837 [INFO ] parsing gps (blinky blinky/src/main.rs:74)
10.614898 [INFO ] NO SIGNAL AT ALL [ERR] $GNZDA,190916.000,07,09,2025,,*45 (blinky blinky/src/main.rs:88)
11.444427 [INFO ] got full sentence: $GNGSA,A,3,29,33,07,27,26,30,,,,,,,0.91,0.59,0.69,3*06 (blinky src/gps/reader.rs:115)
11.444793 [INFO ] parse failed: $GNGSA,A,3,29,33,07,27,26,30,,,,,,,0.91,0.59,0.69,3*06 (blinky src/gps/reader.rs:119)
11.455810 [INFO ] parse failed: $GPGSV,3,1,11,10,71,142,37,32,65,001,34,28,64,237,43,25,40,097,22,1*62 (blinky src/gps/reader.rs:119)
11.466400 [INFO ] got full sentence: $GPGSV,3,3,11,01,11,319,13,26,02,191,,24,01,051,,1*50 (blinky src/gps/reader.rs:115)
11.466735 [INFO ] parse failed: $GPGSV,3,3,11,01,11,319,13,26,02,191,,24,01,051,,1*50 (blinky src/gps/reader.rs:119)
11.478393 [INFO ] got full sentence: $GLGSV,3,2,09,69,22,092,19,79,20,032,15,86,20,291,22,85,12,234,,1*78 (blinky src/gps/reader.rs:115)
11.478790 [INFO ] parse failed: $GLGSV,3,2,09,69,22,092,19,79,20,032,15,86,20,291,22,85,12,234,,1*78 (blinky src/gps/reader.rs:119)
11.487335 [INFO ] got full sentence: $GAGSV,3,1,09,29,62,326,27,33,42,263,28,07,41,061,27,27,32,129,28,7*7A (blinky src/gps/reader.rs:115)
11.487731 [INFO ] parse failed: $GAGSV,3,1,09,29,62,326,27,33,42,263,28,07,41,061,27,27,32,129,28,7*7A (blinky src/gps/reader.rs:119)
11.496276 [INFO ] got full sentence: $GAGSV,3,3,09,21,07,176,,7*4E (blinky src/gps/reader.rs:115)
11.496490 [INFO ] parse failed: $GAGSV,3,3,09,21,07,176,,7*4E (blinky src/gps/reader.rs:119)
11.502349 [INFO ] got full sentence: $GBGSV,3,1,09,20,70,003,25,37,63,089,36,46,40,189,,32,37,102,30,1*7A (blinky src/gps/reader.rs:115)
11.502746 [INFO ] parse failed: $GBGSV,3,1,09,20,70,003,25,37,63,089,36,46,40,189,,32,37,102,30,1*7A (blinky src/gps/reader.rs:119)
11.510925 [INFO ] got full sentence: $GBGSV,3,3,09,35,04,295,,1*43 (blinky src/gps/reader.rs:115)
11.511138 [INFO ] parse failed: $GBGSV,3,3,09,35,04,295,,1*43 (blinky src/gps/reader.rs:119)
11.515777 [INFO ] parsing gps (blinky blinky/src/main.rs:74)
11.515838 [INFO ] GPS (blinky blinky/src/main.rs:78)
11.517272 [INFO ] got full sentence: $GNRMC,190917.000,A,3548.7132,N,07847.4094,W,0.09,31.77070925,A,V*25 (blinky src/gps/reader.rs:115)
11.517669 [INFO ] parse failed: $GNRMC,190917.000,A,3548.7132,N,07847.4094,W,0.09,31.77070925,A,V*25 (blinky src/gps/reader.rs:119)
11.523590 [INFO ] got full sentence: $GNZDA,190917.000,07,09,2025,,*44 (blinky src/gps/reader.rs:115)
11.616455 [INFO ] parsing gps (blinky blinky/src/main.rs:74)
11.616516 [INFO ] NO SIGNAL AT ALL [ERR] $GNZDA,190917.000,07,09,2025,,*44 (blinky blinky/src/main.rs:88)
12.509246 [INFO ] got full sentence: $GBGSV,3,1,09,20,70,003,25,37,63,089,35,46,40,189,,32,37,102,30,1*79 (blinky src/gps/reader.rs:115)
12.509643 [INFO ] parse failed: $GBGSV,3,1,09,20,70,003,25,37,63,089,35,46,40,189,,32,37,102,30,1*79 (blinky src/gps/reader.rs:119)
12.517395 [INFO ] parsing gps (blinky blinky/src/main.rs:74)
12.517456 [INFO ] GPS (blinky blinky/src/main.rs:78)
12.518127 [INFO ] got full sentence: $GBGSV,3,3,09,35,04,295,,*43 (blinky src/gps/reader.rs:115)
12.518341 [INFO ] parse failed: $GBGSV,3,3,09,35,04,295,,*43 (blinky src/gps/reader.rs:119)
12.527465 [INFO ] got full sentence: $GNVTG,31.77,T,,M,0.16,N,0.29,K,A*1D (blinky src/gps/reader.rs:115)
12.527740 [INFO ] parse failed: $GNVTG,31.77,T,,M,0.16,N,0.29,K,A*1D (blinky src/gps/reader.rs:119)
12.530517 [INFO ] got full sentence: $GNZDA,190918.000,07,09,2025,,*4B (blinky src/gps/reader.rs:115)
12.618072 [INFO ] parsing gps (blinky blinky/src/main.rs:74)
12.618133 [INFO ] NO SIGNAL AT ALL [ERR] $GNZDA,190918.000,07,09,2025,,*4B (blinky blinky/src/main.rs:88)
13.433654 [INFO ] got full sentence: $GNGGA,190919.000,3548.7132,N,07847.4094,W,1,23,0.59,129.7,M,-33.0,M,,*4C (blinky src/gps/reader.rs:115)
13.443298 [INFO ] got full sentence: $GNGSA,A,3,10,32,28,25,31,12,23,02,,,,,0.91,0.59,0.69,1*05 (blinky src/gps/reader.rs:115)
13.443664 [INFO ] parse failed: $GNGSA,A,3,10,32,28,25,31,12,23,02,,,,,0.91,0.59,0.69,1*05 (blinky src/gps/reader.rs:119)
13.452667 [INFO ] got full sentence: $GNGSA,A,3,29,33,07,27,26,30,,,,,,,0.91,0.59,0.69,3*06 (blinky src/gps/reader.rs:115)
13.453033 [INFO ] parse failed: $GNGSA,A,3,29,33,07,27,26,30,,,,,,,0.91,0.59,0.69,3*06 (blinky src/gps/reader.rs:119)
13.463623 [INFO ] got full sentence: $GPGSV,3,1,11,10,71,142,38,32,65,001,34,28,64,237,43,25,40,097,23,1*6C (blinky src/gps/reader.rs:115)
13.464019 [INFO ] parse failed: $GPGSV,3,1,11,10,71,142,38,32,65,001,34,28,64,237,43,25,40,097,23,1*6C (blinky src/gps/reader.rs:119)
13.474639 [INFO ] got full sentence: $GPGSV,3,3,11,01,11,319,14,26,02,191,,24,01,051,,1*57 (blinky src/gps/reader.rs:115)
13.474975 [INFO ] parse failed: $GPGSV,3,3,11,01,11,319,14,26,02,191,,24,01,051,,1*57 (blinky src/gps/reader.rs:119)
13.486602 [INFO ] got full sentence: $GLGSV,3,2,09,69,22,092,21,79,20,032,16,86,20,291,23,85,12,234,,1*71 (blinky src/gps/reader.rs:115)
13.487030 [INFO ] parse failed: $GLGSV,3,2,09,69,22,092,21,79,20,032,16,86,20,291,23,85,12,234,,1*71 (blinky src/gps/reader.rs:119)
13.495544 [INFO ] got full sentence: $GAGSV,3,1,09,29,62,326,28,33,42,263,28,07,41,061,27,27,32,129,28,7*75 (blinky src/gps/reader.rs:115)
13.495971 [INFO ] parse failed: $GAGSV,3,1,09,29,62,326,28,33,42,263,28,07,41,061,27,27,32,129,28,7*75 (blinky src/gps/reader.rs:119)
13.504486 [INFO ] got full sentence: $GAGSV,3,3,09,21,07,176,,7*4E (blinky src/gps/reader.rs:115)
13.504730 [INFO ] parse failed: $GAGSV,3,3,09,21,07,176,,7*4E (blinky src/gps/reader.rs:119)
13.510589 [INFO ] got full sentence: $GBGSV,3,1,09,20,70,003,25,37,63,089,34,46,40,189,,32,37,102,30,1*78 (blinky src/gps/reader.rs:115)
13.510986 [INFO ] parse failed: $GBGSV,3,1,09,20,70,003,25,37,63,089,34,46,40,189,,32,37,102,30,1*78 (blinky src/gps/reader.rs:119)
13.519012 [INFO ] parsing gps (blinky blinky/src/main.rs:74)
13.519073 [INFO ] GPS (blinky blinky/src/main.rs:78)
13.519714 [INFO ] got full sentence: $GBGSV,3,3,09,35,04,295,,1*4 (blinky src/gps/reader.rs:115)
13.519927 [INFO ] parse failed: $GBGSV,3,3,09,35,04,295,,1*4 (blinky src/gps/reader.rs:119)
13.528808 [INFO ] got full sentence: $GNVTG,31.77,T,,M,0.10,N,0.19,K,A*18 (blinky src/gps/reader.rs:115)
13.529052 [INFO ] parse failed: $GNVTG,31.77,T,,M,0.10,N,0.19,K,A*18 (blinky src/gps/reader.rs:119)
13.531829 [INFO ] got full sentence: $GNZDA,190919.000,07,09,2025,,*4A (blinky src/gps/reader.rs:115)
13.619689 [INFO ] parsing gps (blinky blinky/src/main.rs:74)
13.619750 [INFO ] NO SIGNAL AT ALL [ERR] $GNZDA,190919.000,07,09,2025,,*4A (blinky blinky/src/main.rs:88)
14.507904 [INFO ] got full sentence: $GBGSV,3,1,09,20,70,003,23,37,63,089,34,46,40,189,,32,37,102,30,1*7E (blinky src/gps/reader.rs:115)
14.508300 [INFO ] parse failed: $GBGSV,3,1,09,20,70,003,23,37,63,089,34,46,40,189,,32,37,102,30,1*7E (blinky src/gps/reader.rs:119)
14.516479 [INFO ] got full sentence: $GBGSV,3,3,09,35,04,295,,1*43 (blinky src/gps/reader.rs:115)
14.516693 [INFO ] parse failed: $GBGSV,3,3,09,35,04,295,,1*43 (blinky src/gps/reader.rs:119)
14.520629 [INFO ] parsing gps (blinky blinky/src/main.rs:74)
14.520690 [INFO ] GPS (blinky blinky/src/main.rs:78)
14.522827 [INFO ] got full sentence: $GNRMC,190920.000,A,3548.7133,N,07847.4094,W,0.8,31.7070925,,,A,V*20 (blinky src/gps/reader.rs:115)
14.523223 [INFO ] parse failed: $GNRMC,190920.000,A,3548.7133,N,07847.4094,W,0.8,31.7070925,,,A,V*20 (blinky src/gps/reader.rs:119)
14.529144 [INFO ] got full sentence: $GNZDA,190920.000,07,09,2025,,*40 (blinky src/gps/reader.rs:115)
14.621307 [INFO ] parsing gps (blinky blinky/src/main.rs:74)
14.621368 [INFO ] NO SIGNAL AT ALL [ERR] $GNZDA,190920.000,07,09,2025,,*40 (blinky blinky/src/main.rs:88)
15.514739 [INFO ] got full sentence: $GBGSV,3,1,09,20,70,003,24,37,63,089,34,46,40,189,,32,37,102,29,1*71 (blinky src/gps/reader.rs:115)
15.515136 [INFO ] parse failed: $GBGSV,3,1,09,20,70,003,24,37,63,089,34,46,40,189,,32,37,102,29,1*71 (blinky src/gps/reader.rs:119)
15.522247 [INFO ] parsing gps (blinky blinky/src/main.rs:74)
15.522308 [INFO ] GPS (blinky blinky/src/main.rs:78)
15.523345 [INFO ] got full sentence: $GBGSV,3,3,09,35,0,295,,43 (blinky src/gps/reader.rs:115)
15.523529 [INFO ] parse failed: $GBGSV,3,3,09,35,0,295,,43 (blinky src/gps/reader.rs:119)
15.529663 [INFO ] got full sentence: $GNRMC,190921.000,A,3548.7132,N,07847.4094,W,0.09,31.77,070925,,,A,V*20 (blinky src/gps/reader.rs:115)
15.530090 [INFO ] parse failed: $GNRMC,190921.000,A,3548.7132,N,07847.4094,W,0.09,31.77,070925,,,A,V*20 (blinky src/gps/reader.rs:119)
15.536010 [INFO ] got full sentence: $GNZDA,190921.000,07,09,2025,,*41 (blinky src/gps/reader.rs:115)
15.622924 [INFO ] parsing gps (blinky blinky/src/main.rs:74)
15.622985 [INFO ] NO SIGNAL AT ALL [ERR] $GNZDA,190921.000,07,09,2025,,*41 (blinky blinky/src/main.rs:88)
16.434417 [INFO ] got full sentence: $GNGGA,190922.000,3548.7132,N,07847.4094,W,1,23,0.59,129.7,M,-33.0,M,,*44 (blinky src/gps/reader.rs:115)
16.444061 [INFO ] got full sentence: $GNGSA,A,3,10,32,28,25,31,12,23,02,,,,,0.91,0.59,0.69,1*05 (blinky src/gps/reader.rs:115)
16.444427 [INFO ] parse failed: $GNGSA,A,3,10,32,28,25,31,12,23,02,,,,,0.91,0.59,0.69,1*05 (blinky src/gps/reader.rs:119)
16.453430 [INFO ] got full sentence: $GNGSA,A,3,29,33,07,27,26,30,,,,,,,0.91,0.59,0.69,3*06 (blinky src/gps/reader.rs:115)
16.453765 [INFO ] parse failed: $GNGSA,A,3,29,33,07,27,26,30,,,,,,,0.91,0.59,0.69,3*06 (blinky src/gps/reader.rs:119)
16.464355 [INFO ] got full sentence: $GPGSV,3,1,11,10,71,142,38,32,65,001,35,28,64,237,43,25,40,097,24,1*6A (blinky src/gps/reader.rs:115)
16.464782 [INFO ] parse failed: $GPGSV,3,1,11,10,71,142,38,32,65,001,35,28,64,237,43,25,40,097,24,1*6A (blinky src/gps/reader.rs:119)
16.475402 [INFO ] got full sentence: $GPGSV,3,3,11,01,11,319,14,26,02,191,,24,01,051,,1*57 (blinky src/gps/reader.rs:115)
16.475738 [INFO ] parse failed: $GPGSV,3,3,11,01,11,319,14,26,02,191,,24,01,051,,1*57 (blinky src/gps/reader.rs:119)
16.487365 [INFO ] got full sentence: $GLGSV,3,2,09,69,22,092,18,79,20,032,17,86,20,291,24,85,12,234,,1*7D (blinky src/gps/reader.rs:115)
16.487792 [INFO ] parse failed: $GLGSV,3,2,09,69,22,092,18,79,20,032,17,86,20,291,24,85,12,234,,1*7D (blinky src/gps/reader.rs:119)
16.496307 [INFO ] got full sentence: $GAGSV,3,1,09,29,62,326,26,33,42,263,30,07,41,061,27,27,32,129,29,7*73 (blinky src/gps/reader.rs:115)
16.496734 [INFO ] parse failed: $GAGSV,3,1,09,29,62,326,26,33,42,263,30,07,41,061,27,27,32,129,29,7*73 (blinky src/gps/reader.rs:119)
16.505249 [INFO ] got full sentence: $GAGSV,3,3,09,21,07,176,,7*4E (blinky src/gps/reader.rs:115)
16.505462 [INFO ] parse failed: $GAGSV,3,3,09,21,07,176,,7*4E (blinky src/gps/reader.rs:119)
16.511322 [INFO ] got full sentence: $GBGSV,3,1,09,20,70,003,26,37,63,089,34,46,40,189,,32,36,103,28,1*72 (blinky src/gps/reader.rs:115)
16.511749 [INFO ] parse failed: $GBGSV,3,1,09,20,70,003,26,37,63,089,34,46,40,189,,32,36,103,28,1*72 (blinky src/gps/reader.rs:119)
16.519927 [INFO ] got full sentence: $GBGSV,3,3,09,35,04,295,,1*43 (blinky src/gps/reader.rs:115)
16.520141 [INFO ] parse failed: $GBGSV,3,3,09,35,04,295,,1*43 (blinky src/gps/reader.rs:119)
16.523864 [INFO ] parsing gps (blinky blinky/src/main.rs:74)
16.523925 [INFO ] GPS (blinky blinky/src/main.rs:78)
16.526245 [INFO ] got full sentence: $GNRMC,190922.000,A,3548.7132,N,07847.4094,W,.14,317,070925,,,A,V*2F (blinky src/gps/reader.rs:115)
16.526672 [INFO ] parse failed: $GNRMC,190922.000,A,3548.7132,N,07847.4094,W,.14,317,070925,,,A,V*2F (blinky src/gps/reader.rs:119)
16.532592 [INFO ] got full sentence: $GNZDA,190922.000,07,09,2025,,*42 (blinky src/gps/reader.rs:115)
16.624542 [INFO ] parsing gps (blinky blinky/src/main.rs:74)
16.624603 [INFO ] NO SIGNAL AT ALL [ERR] $GNZDA,190922.000,07,09,2025,,*42 (blinky blinky/src/main.rs:88)
17.514709 [INFO ] got full sentence: $GBGSV,3,1,09,20,70,003,26,37,63,089,36,46,40,189,,32,36,103,29,1*71 (blinky src/gps/reader.rs:115)
17.515136 [INFO ] parse failed: $GBGSV,3,1,09,20,70,003,26,37,63,089,36,46,40,189,,32,36,103,29,1*71 (blinky src/gps/reader.rs:119)
17.523315 [INFO ] got full sentence: $GBGSV,3,3,09,35,04,295,,1*43 (blinky src/gps/reader.rs:115)
17.523529 [INFO ] parse failed: $GBGSV,3,3,09,35,04,295,,1*43 (blinky src/gps/reader.rs:119)
17.525512 [INFO ] parsing gps (blinky blinky/src/main.rs:74)
17.525543 [INFO ] GPS (blinky blinky/src/main.rs:78)
17.529632 [INFO ] got full sentence: $GNRMC,190923.000,A,3548.132,N,847.4094,W,0.13,31.77,070925,,,A,V*29 (blinky src/gps/reader.rs:115)
17.530059 [INFO ] parse failed: $GNRMC,190923.000,A,3548.132,N,847.4094,W,0.13,31.77,070925,,,A,V*29 (blinky src/gps/reader.rs:119)
17.535980 [INFO ] got full sentence: $GNZDA,190923.000,07,09,2025,,*43 (blinky src/gps/reader.rs:115)
17.626190 [INFO ] parsing gps (blinky blinky/src/main.rs:74)
17.626251 [INFO ] NO SIGNAL AT ALL [ERR] $GNZDA,190923.000,07,09,2025,,*43 (blinky blinky/src/main.rs:88)
18.516143 [INFO ] got full sentence: $GBGSV,3,1,09,20,70,003,25,37,63,089,36,46,40,189,,32,36,103,30,1*7A (blinky src/gps/reader.rs:115)
18.516540 [INFO ] parse failed: $GBGSV,3,1,09,20,70,003,25,37,63,089,36,46,40,189,,32,36,103,30,1*7A (blinky src/gps/reader.rs:119)
18.524749 [INFO ] got full sentence: $GBGSV,3,3,09,35,04,295,,1*43 (blinky src/gps/reader.rs:115)
18.524963 [INFO ] parse failed: $GBGSV,3,3,09,35,04,295,,1*43 (blinky src/gps/reader.rs:119)
18.527130 [INFO ] parsing gps (blinky blinky/src/main.rs:74)
18.527191 [INFO ] GPS (blinky blinky/src/main.rs:78)
18.531066 [INFO ] got full sentence: $GNRMC,190924.000,A,3548.712,N,077.4094,W,0.14,31.77,070925,,,A,V*29 (blinky src/gps/reader.rs:115)
18.531494 [INFO ] parse failed: $GNRMC,190924.000,A,3548.712,N,077.4094,W,0.14,31.77,070925,,,A,V*29 (blinky src/gps/reader.rs:119)
18.537414 [INFO ] got full sentence: $GNZDA,190924.000,07,09,2025,,*44 (blinky src/gps/reader.rs:115)
