0.309234 [INFO ] got full sentence: $GNGGA,191258.000,3548.7134,N,07847.4090,W,1,22,0.61,129.6,M,-33.0,M,,*4A (blinky src/gps/reader.rs:113)
0.394378 [INFO ] got full sentence: $GBGSV,3,3,09,47,02,221,,1*4F (blinky src/gps/reader.rs:113)
0.400512 [INFO ] parsing gps (blinky blinky/src/main.rs:74)
0.400573 [INFO ] GPS (blinky blinky/src/main.rs:78)
0.400726 [INFO ] got full sentence: $GNRMC,191258.000,A,3548.7134,N,07847.4090,W,0.12,31.77,070925,,,A,V*2C (blinky src/gps/reader.rs:113)
0.404022 [INFO ] got full sentence: $GNVTG,31.77,T,,M,0.12,N,0.22,K,A*12 (blinky src/gps/reader.rs:113)
0.407073 [INFO ] got full sentence: $GNZDA,191258.000,07,09,2025,,*45 (blinky src/gps/reader.rs:113)
0.500640 [INFO ] parsing gps (blinky blinky/src/main.rs:74)
0.500701 [INFO ] NO SIGNAL AT ALL [ERR] $GNZDA,191258.000,07,09,2025,,*45 (blinky blinky/src/main.rs:88)
1.393371 [INFO ] got full sentence: $GBGSV,3,2,09,19,30,311,20,23,20,043,22,35,04,293,,29,04,240,,1*73 (blinky src/gps/reader.rs:113)
1.396087 [INFO ] got full sentence: $GBGSV,3,3,09,47,02,221,,1*4F (blinky src/gps/reader.rs:113)
1.401062 [INFO ] parsing gps (blinky blinky/src/main.rs:74)
1.401092 [INFO ] GPS (blinky blinky/src/main.rs:78)
1.402404 [INFO ] got full sentence: $GNRMC,191259.000,A,3548.7134,N,07847.4090,W,0.10,31.77,070925,,,A,V*2F (blinky src/gps/reader.rs:113)
1.405700 [INFO ] got full sentence: $GNVTG,31.77,T,,M,0.10,N,0.18,K,A*19 (blinky src/gps/reader.rs:113)
1.408752 [INFO ] got full sentence: $GNZDA,191259.000,07,09,2025,,*44 (blinky src/gps/reader.rs:113)
1.501525 [INFO ] parsing gps (blinky blinky/src/main.rs:74)
1.501586 [INFO ] NO SIGNAL AT ALL [ERR] $GNZDA,191259.000,07,09,2025,,*44 (blinky blinky/src/main.rs:88)
2.314514 [INFO ] got full sentence: $GNGGA,191300.000,3548.7135,N,07847.4089,W,1,22,0.61,129.6,M,-33.0,M,,*4F (blinky src/gps/reader.rs:113)
2.324127 [INFO ] got full sentence: $GNGSA,A,3,10,28,32,25,31,12,23,02,,,,,0.93,0.61,0.70,1*04 (blinky src/gps/reader.rs:113)
2.328491 [INFO ] got full sentence: $GNGSA,A,3,80,69,79,,,,,,,,,,0.93,0.61,0.70,2*01 (blinky src/gps/reader.rs:113)
2.333343 [INFO ] got full sentence: $GNGSA,A,3,29,33,07,27,30,26,,,,,,,0.93,0.61,0.70,3*07 (blinky src/gps/reader.rs:113)
2.338043 [INFO ] got full sentence: $GNGSA,A,3,20,37,32,19,23,,,,,,,,0.93,0.61,0.70,4*00 (blinky src/gps/reader.rs:113)
2.344268 [INFO ] got full sentence: $GPGSV,3,1,10,10,68,145,33,28,65,239,46,32,65,003,36,25,41,095,22,1*61 (blinky src/gps/reader.rs:113)
2.350524 [INFO ] got full sentence: $GPGSV,3,2,10,31,32,229,24,12,25,060,28,23,24,142,18,02,23,289,25,1*6E (blinky src/gps/reader.rs:113)
2.354522 [INFO ] got full sentence: $GPGSV,3,3,10,01,12,317,16,26,03,191,12,1*68 (blinky src/gps/reader.rs:113)
2.360260 [INFO ] got full sentence: $GLGSV,3,1,09,80,62,081,19,70,57,012,,73,38,177,,71,27,317,,1*70 (blinky src/gps/reader.rs:113)
2.366149 [INFO ] got full sentence: $GLGSV,3,2,09,69,21,093,22,86,20,290,,79,19,031,15,85,10,233,,1*7F (blinky src/gps/reader.rs:113)
2.368835 [INFO ] got full sentence: $GLGSV,3,3,09,87,09,331,,1*46 (blinky src/gps/reader.rs:113)
2.375091 [INFO ] got full sentence: $GAGSV,3,1,10,29,63,328,25,33,42,262,35,07,41,062,16,27,33,128,19,7*71 (blinky src/gps/reader.rs:113)
2.381347 [INFO ] got full sentence: $GAGSV,3,2,10,30,28,069,17,26,27,202,18,19,25,282,24,12,17,318,17,7*73 (blinky src/gps/reader.rs:113)
2.384979 [INFO ] got full sentence: $GAGSV,3,3,10,21,08,175,,10,01,333,,7*79 (blinky src/gps/reader.rs:113)
2.391082 [INFO ] got full sentence: $GBGSV,3,1,09,20,71,006,37,37,63,084,38,46,42,189,,32,35,105,25,1*7D (blinky src/gps/reader.rs:113)
2.396972 [INFO ] got full sentence: $GBGSV,3,2,09,19,30,311,20,23,20,043,21,35,04,293,,29,04,240,,1*70 (blinky src/gps/reader.rs:113)
2.399658 [INFO ] got full sentence: $GBGSV,3,3,09,47,02,221,,1*4F (blinky src/gps/reader.rs:113)
2.402252 [INFO ] parsing gps (blinky blinky/src/main.rs:74)
2.402313 [INFO ] GPS (blinky blinky/src/main.rs:78)
2.406005 [INFO ] got full sentence: $GNRMC,191300.000,A,3548.7135N,0784.4089,W,0.12,31.77,070925,,,A,V*29 (blinky src/gps/reader.rs:113)
2.409301 [INFO ] got full sentence: $GNVTG,31.77,T,,M,0.12,N,0.22,K,A*12 (blinky src/gps/reader.rs:113)
2.412322 [INFO ] got full sentence: $GNZDA,191300.000,07,09,2025,,*49 (blinky src/gps/reader.rs:113)
2.502868 [INFO ] parsing gps (blinky blinky/src/main.rs:74)
2.502929 [INFO ] NO SIGNAL AT ALL [ERR] $GNZDA,191300.000,07,09,2025,,*49 (blinky blinky/src/main.rs:88)
3.342468 [INFO ] got full sentence: $GNGSA,A,3,20,37,32,19,23,,,,,,,,0.91,0.59,0.69,4*01 (blinky src/gps/reader.rs:113)
3.348724 [INFO ] got full sentence: $GPGSV,3,1,10,10,68,145,33,28,65,239,46,32,65,003,36,25,41,095,22,1*61 (blinky src/gps/reader.rs:113)
3.354980 [INFO ] got full sentence: $GPGSV,3,2,10,31,32,229,24,12,25,060,26,23,24,142,20,02,23,289,26,1*68 (blinky src/gps/reader.rs:113)
3.358947 [INFO ] got full sentence: $GPGSV,3,3,10,01,12,317,16,26,03,191,12,1*68 (blinky src/gps/reader.rs:113)
3.364685 [INFO ] got full sentence: $GLGSV,3,1,09,80,62,081,20,70,57,012,,73,38,177,,71,27,317,,1*7A (blinky src/gps/reader.rs:113)
3.370758 [INFO ] got full sentence: $GLGSV,3,2,09,69,21,093,22,86,20,290,17,79,19,031,15,85,10,233,,1*79 (blinky src/gps/reader.rs:113)
3.373443 [INFO ] got full sentence: $GLGSV,3,3,09,87,09,331,,1*46 (blinky src/gps/reader.rs:113)
3.379699 [INFO ] got full sentence: $GAGSV,3,1,10,29,63,328,26,33,42,262,35,07,41,062,25,27,33,128,20,7*78 (blinky src/gps/reader.rs:113)
3.385955 [INFO ] got full sentence: $GAGSV,3,2,10,30,28,069,16,26,27,202,18,19,25,282,24,12,17,318,17,7*72 (blinky src/gps/reader.rs:113)
3.389617 [INFO ] got full sentence: $GAGSV,3,3,10,21,08,175,,10,01,333,,7*79 (blinky src/gps/reader.rs:113)
3.395690 [INFO ] got full sentence: $GBGSV,3,1,09,20,71,006,37,37,63,084,37,46,42,189,,32,35,105,27,1*70 (blinky src/gps/reader.rs:113)
3.401580 [INFO ] got full sentence: $GBGSV,3,2,09,19,30,311,21,23,20,043,20,35,04,293,,29,04,240,,1*70 (blinky src/gps/reader.rs:113)
3.403717 [INFO ] parsing gps (blinky blinky/src/main.rs:74)
3.403778 [INFO ] GPS (blinky blinky/src/main.rs:78)
3.404388 [INFO ] got full sentence: $GBGSV,3,3,09,47,02,221,1*4F (blinky src/gps/reader.rs:113)
3.413909 [INFO ] got full sentence: $GNVTG,31.77,T,,M,0.11,N,0.21,K,A*12 (blinky src/gps/reader.rs:113)
3.416961 [INFO ] got full sentence: $GNZDA,191301.000,07,09,2025,,*48 (blinky src/gps/reader.rs:113)
3.504333 [INFO ] parsing gps (blinky blinky/src/main.rs:74)
3.504394 [INFO ] NO SIGNAL AT ALL [ERR] $GNZDA,191301.000,07,09,2025,,*48 (blinky blinky/src/main.rs:88)
4.386505 [INFO ] got full sentence: $GBGSV,3,2,09,19,30,311,22,23,20,043,20,35,04,293,,29,04,240,,1*73 (blinky src/gps/reader.rs:113)
4.389190 [INFO ] got full sentence: $GBGSV,3,3,09,47,02,221,,1*4F (blinky src/gps/reader.rs:113)
4.395507 [INFO ] got full sentence: $GNRMC,191302.000,A,3548.7135,N,07847.4089,W,0.04,31.77,070925,,,A,V*2C (blinky src/gps/reader.rs:113)
4.398834 [INFO ] got full sentence: $GNVTG,31.77,T,,M,0.04,N,0.07,K,A*12 (blinky src/gps/reader.rs:113)
4.401855 [INFO ] got full sentence: $GNZDA,191302.000,07,09,2025,,*4B (blinky src/gps/reader.rs:113)
4.405792 [INFO ] parsing gps (blinky blinky/src/main.rs:74)
4.405853 [INFO ] NO SIGNAL AT ALL [ERR] $GNZDA,191302.000,07,09,2025,,*4B (blinky blinky/src/main.rs:88)
5.309204 [INFO ] got full sentence: $GNGGA,191303.000,3548.7135,N,07847.4089,W,1,23,0.59,129.6,M,-33.0,M,,*46 (blinky src/gps/reader.rs:113)
5.318847 [INFO ] got full sentence: $GNGSA,A,3,10,28,32,25,31,12,23,02,,,,,0.91,0.59,0.69,1*05 (blinky src/gps/reader.rs:113)
5.323364 [INFO ] got full sentence: $GNGSA,A,3,80,69,86,79,,,,,,,,,0.91,0.59,0.69,2*0E (blinky src/gps/reader.rs:113)
5.328216 [INFO ] got full sentence: $GNGSA,A,3,29,33,07,27,30,26,,,,,,,0.91,0.59,0.69,3*06 (blinky src/gps/reader.rs:113)
5.332916 [INFO ] got full sentence: $GNGSA,A,3,20,37,32,19,23,,,,,,,,0.91,0.59,0.69,4*01 (blinky src/gps/reader.rs:113)
5.339141 [INFO ] got full sentence: $GPGSV,3,1,10,10,68,145,33,28,65,239,46,32,65,003,36,25,41,095,23,1*60 (blinky src/gps/reader.rs:113)
5.345397 [INFO ] got full sentence: $GPGSV,3,2,10,31,32,229,23,12,25,060,23,23,24,142,20,02,23,289,27,1*6B (blinky src/gps/reader.rs:113)
5.349212 [INFO ] got full sentence: $GPGSV,3,3,10,01,12,317,16,26,03,191,,1*6B (blinky src/gps/reader.rs:113)
5.354949 [INFO ] got full sentence: $GLGSV,3,1,09,80,62,081,19,70,57,012,,73,38,177,,71,27,317,,1*70 (blinky src/gps/reader.rs:113)
5.361022 [INFO ] got full sentence: $GLGSV,3,2,09,69,21,093,25,86,20,290,13,79,19,031,15,85,10,233,,1*7A (blinky src/gps/reader.rs:113)
5.363708 [INFO ] got full sentence: $GLGSV,3,3,09,87,09,331,,1*46 (blinky src/gps/reader.rs:113)
5.369964 [INFO ] got full sentence: $GAGSV,3,1,10,29,63,328,25,33,42,262,35,07,41,062,25,27,33,128,21,7*7A (blinky src/gps/reader.rs:113)
5.376220 [INFO ] got full sentence: $GAGSV,3,2,10,30,28,069,16,26,27,202,17,19,25,282,24,12,17,318,17,7*7D (blinky src/gps/reader.rs:113)
5.379852 [INFO ] got full sentence: $GAGSV,3,3,10,21,08,175,,10,01,333,,7*79 (blinky src/gps/reader.rs:113)
5.385955 [INFO ] got full sentence: $GBGSV,3,1,09,20,71,006,36,37,63,084,36,46,42,189,,32,35,105,28,1*7F (blinky src/gps/reader.rs:113)
5.391845 [INFO ] got full sentence: $GBGSV,3,2,09,19,30,311,23,23,20,043,20,35,04,293,,29,04,240,,1*72 (blinky src/gps/reader.rs:113)
5.394531 [INFO ] got full sentence: $GBGSV,3,3,09,47,02,221,,1*4F (blinky src/gps/reader.rs:113)
5.400878 [INFO ] got full sentence: $GNRMC,191303.000,A,3548.7135,N,07847.4089,W,0.19,31.77,070925,,,A,V*21 (blinky src/gps/reader.rs:113)
5.404174 [INFO ] got full sentence: $GNVTG,31.77,T,,M,0.19,N,0.36,K,A*1C (blinky src/gps/reader.rs:113)
5.406646 [INFO ] parsing gps (blinky blinky/src/main.rs:74)
5.406707 [INFO ] GPS (blinky blinky/src/main.rs:78)
5.407318 [INFO ] got full sentence: $GNZDA,191303.000,07,09,2025,,*4A (blinky src/gps/reader.rs:113)
5.507263 [INFO ] parsing gps (blinky blinky/src/main.rs:74)
5.507324 [INFO ] NO SIGNAL AT ALL [ERR] $GNZDA,191303.000,07,09,2025,,*4A (blinky blinky/src/main.rs:88)
6.387817 [INFO ] got full sentence: $GBGSV,3,2,09,19,30,311,23,23,20,043,20,35,04,293,,29,04,240,,1*72 (blinky src/gps/reader.rs:113)
6.390533 [INFO ] got full sentence: $GBGSV,3,3,09,47,02,221,,1*4F (blinky src/gps/reader.rs:113)
6.396850 [INFO ] got full sentence: $GNRMC,191304.000,A,3548.7135,N,07847.4089,W,0.09,31.77,070925,,,A,V*27 (blinky src/gps/reader.rs:113)
6.400146 [INFO ] got full sentence: $GNVTG,31.77,T,,M,0.09,N,0.16,K,A*1F (blinky src/gps/reader.rs:113)
6.403198 [INFO ] got full sentence: $GNZDA,191304.000,07,09,2025,,*4D (blinky src/gps/reader.rs:113)
6.408721 [INFO ] parsing gps (blinky blinky/src/main.rs:74)
6.408782 [INFO ] NO SIGNAL AT ALL [ERR] $GNZDA,191304.000,07,09,2025,,*4D (blinky blinky/src/main.rs:88)
7.309570 [INFO ] parsing gps (blinky blinky/src/main.rs:74)
7.309631 [INFO ] GPS (blinky blinky/src/main.rs:78)
7.319885 [INFO ] got full sentence: $GNGSA,A,3,80,69,86,79,,,,,,,,,0.91,0.59,0.69,2*0E (blinky src/gps/reader.rs:113)
7.324768 [INFO ] got full sentence: $GNGSA,A,3,29,33,07,27,30,26,,,,,,,0.91,0.59,0.69,3*06 (blinky src/gps/reader.rs:113)
7.329437 [INFO ] got full sentence: $GNGSA,A,3,20,37,32,19,23,,,,,,,,0.91,0.59,0.69,4*01 (blinky src/gps/reader.rs:113)
7.335693 [INFO ] got full sentence: $GPGSV,3,1,10,10,68,145,31,28,65,239,46,32,65,003,36,25,41,095,25,1*64 (blinky src/gps/reader.rs:113)
7.341949 [INFO ] got full sentence: $GPGSV,3,2,10,31,32,229,24,12,25,060,22,23,24,142,21,02,23,289,25,1*6E (blinky src/gps/reader.rs:113)
7.345764 [INFO ] got full sentence: $GPGSV,3,3,10,01,12,317,17,26,03,191,,1*6A (blinky src/gps/reader.rs:113)
7.351501 [INFO ] got full sentence: $GLGSV,3,1,09,80,62,081,18,70,57,012,,73,38,177,,71,27,317,,1*71 (blinky src/gps/reader.rs:113)
7.357574 [INFO ] got full sentence: $GLGSV,3,2,09,69,21,093,26,86,20,290,15,79,19,031,15,85,10,233,,1*7F (blinky src/gps/reader.rs:113)
7.360260 [INFO ] got full sentence: $GLGSV,3,3,09,87,09,331,,1*46 (blinky src/gps/reader.rs:113)
7.366516 [INFO ] got full sentence: $GAGSV,3,1,09,29,63,328,23,33,42,262,35,07,41,062,25,27,33,128,21,7*74 (blinky src/gps/reader.rs:113)
7.372772 [INFO ] got full sentence: $GAGSV,3,2,09,30,28,069,17,26,27,202,17,19,25,282,23,12,17,318,18,7*7C (blinky src/gps/reader.rs:113)
7.375457 [INFO ] got full sentence: $GAGSV,3,3,09,21,08,175,,7*42 (blinky src/gps/reader.rs:113)
7.381530 [INFO ] got full sentence: $GBGSV,3,1,09,20,71,006,36,37,63,084,36,46,42,189,,32,35,105,29,1*7E (blinky src/gps/reader.rs:113)
7.387420 [INFO ] got full sentence: $GBGSV,3,2,09,19,30,311,22,23,20,043,20,29,04,240,,35,04,293,,1*73 (blinky src/gps/reader.rs:113)
7.390136 [INFO ] got full sentence: $GBGSV,3,3,09,47,02,221,,1*4F (blinky src/gps/reader.rs:113)
7.396453 [INFO ] got full sentence: $GNRMC,191305.000,A,3548.7135,N,07847.4089,W,0.15,31.77,070925,,,A,V*2B (blinky src/gps/reader.rs:113)
7.399749 [INFO ] got full sentence: $GNVTG,31.77,T,,M,0.15,N,0.27,K,A*10 (blinky src/gps/reader.rs:113)
7.402801 [INFO ] got full sentence: $GNZDA,191305.000,07,09,2025,,*4C (blinky src/gps/reader.rs:113)
7.410186 [INFO ] parsing gps (blinky blinky/src/main.rs:74)
7.410247 [INFO ] NO SIGNAL AT ALL [ERR] $GNZDA,191305.000,07,09,2025,,*4C (blinky blinky/src/main.rs:88)
8.338470 [INFO ] got full sentence: $GNGGA,191306.000,3548.7135,N,07847.4089,W,1,23,0.59,129.6,M,-33.0,M,,*43 (blinky src/gps/reader.rs:113)
8.348114 [INFO ] got full sentence: $GNGSA,A,3,10,28,32,25,31,12,23,02,,,,,0.91,0.59,0.69,1*05 (blinky src/gps/reader.rs:113)
8.352630 [INFO ] got full sentence: $GNGSA,A,3,80,69,86,79,,,,,,,,,0.91,0.59,0.69,2*0E (blinky src/gps/reader.rs:113)
8.357482 [INFO ] got full sentence: $GNGSA,A,3,29,33,07,27,30,26,,,,,,,0.91,0.59,0.69,3*06 (blinky src/gps/reader.rs:113)
8.362152 [INFO ] got full sentence: $GNGSA,A,3,20,37,32,19,23,,,,,,,,0.91,0.59,0.69,4*01 (blinky src/gps/reader.rs:113)
8.368408 [INFO ] got full sentence: $GPGSV,3,1,10,10,68,145,31,28,65,239,46,32,65,003,36,25,41,095,25,1*64 (blinky src/gps/reader.rs:113)
8.374664 [INFO ] got full sentence: $GPGSV,3,2,10,31,32,229,24,12,25,060,20,23,24,142,21,02,23,289,24,1*6D (blinky src/gps/reader.rs:113)
8.378479 [INFO ] got full sentence: $GPGSV,3,3,10,01,12,317,18,26,03,191,,1*65 (blinky src/gps/reader.rs:113)
8.384216 [INFO ] got full sentence: $GLGSV,3,1,09,80,62,081,17,70,57,012,,73,38,177,,71,27,317,,1*7E (blinky src/gps/reader.rs:113)
8.390289 [INFO ] got full sentence: $GLGSV,3,2,09,69,21,093,27,86,20,290,15,79,19,031,14,85,10,233,,1*7F (blinky src/gps/reader.rs:113)
8.392974 [INFO ] got full sentence: $GLGSV,3,3,09,87,09,331,,1*46 (blinky src/gps/reader.rs:113)
8.399230 [INFO ] got full sentence: $GAGSV,3,1,10,29,63,328,24,33,42,262,35,07,41,062,25,27,33,128,20,7*7A (blinky src/gps/reader.rs:113)
8.405487 [INFO ] got full sentence: $GAGSV,3,2,10,30,28,069,17,26,27,202,16,19,25,282,23,12,17,318,17,7*7A (blinky src/gps/reader.rs:113)
8.409118 [INFO ] got full sentence: $GAGSV,3,3,10,21,08,175,,10,01,333,,7*79 (blinky src/gps/reader.rs:113)
8.411041 [INFO ] parsing gps (blinky blinky/src/main.rs:74)
8.411102 [INFO ] GPS (blinky blinky/src/main.rs:78)
8.415191 [INFO ] got full sentence: $GBGSV,3,1,09,20,71,06,35,363,084,35,46,42,189,,32,35,105,29,1*7E (blinky src/gps/reader.rs:113)
8.421112 [INFO ] got full sentence: $GBGSV,3,2,09,19,30,311,21,23,20,043,20,35,04,293,,29,04,240,,1*70 (blinky src/gps/reader.rs:113)
8.423797 [INFO ] got full sentence: $GBGSV,3,3,09,47,02,221,,1*4F (blinky src/gps/reader.rs:113)
8.430145 [INFO ] got full sentence: $GNRMC,191306.000,A,3548.7135,N,07847.4089,W,0.39,31.77,070925,,,A,V*26 (blinky src/gps/reader.rs:113)
8.433441 [INFO ] got full sentence: $GNVTG,31.77,T,,M,0.39,N,0.73,K,A*1F (blinky src/gps/reader.rs:113)
8.436462 [INFO ] got full sentence: $GNZDA,191306.000,07,09,2025,,*4F (blinky src/gps/reader.rs:113)
8.511657 [INFO ] parsing gps (blinky blinky/src/main.rs:74)
8.511718 [INFO ] NO SIGNAL AT ALL [ERR] $GNZDA,191306.000,07,09,2025,,*4F (blinky blinky/src/main.rs:88)
9.336944 [INFO ] got full sentence: $GNGSA,A,3,80,69,86,79,,,,,,,,,0.91,0.59,0.69,2*0E (blinky src/gps/reader.rs:113)
9.341796 [INFO ] got full sentence: $GNGSA,A,3,29,33,07,27,30,26,,,,,,,0.91,0.59,0.69,3*06 (blinky src/gps/reader.rs:113)
9.346466 [INFO ] got full sentence: $GNGSA,A,3,20,37,32,19,23,,,,,,,,0.91,0.59,0.69,4*01 (blinky src/gps/reader.rs:113)
9.352722 [INFO ] got full sentence: $GPGSV,3,1,10,10,68,145,31,28,65,239,46,32,65,003,36,25,41,095,26,1*67 (blinky src/gps/reader.rs:113)
9.358978 [INFO ] got full sentence: $GPGSV,3,2,10,31,32,229,24,12,25,060,18,23,24,142,21,02,23,289,23,1*61 (blinky src/gps/reader.rs:113)
9.362792 [INFO ] got full sentence: $GPGSV,3,3,10,01,12,317,17,26,03,191,,1*6A (blinky src/gps/reader.rs:113)
9.368530 [INFO ] got full sentence: $GLGSV,3,1,09,80,62,081,16,70,57,012,,73,38,177,,71,27,317,,1*7F (blinky src/gps/reader.rs:113)
9.374603 [INFO ] got full sentence: $GLGSV,3,2,09,69,21,093,27,86,20,290,14,79,19,031,14,85,10,233,,1*7E (blinky src/gps/reader.rs:113)
9.377288 [INFO ] got full sentence: $GLGSV,3,3,09,87,09,331,,1*46 (blinky src/gps/reader.rs:113)
9.383544 [INFO ] got full sentence: $GAGSV,3,1,10,29,63,328,24,33,42,262,34,07,41,062,25,27,33,128,19,7*71 (blinky src/gps/reader.rs:113)
9.389801 [INFO ] got full sentence: $GAGSV,3,2,10,30,28,069,16,26,27,202,16,19,25,282,23,12,17,318,17,7*7B (blinky src/gps/reader.rs:113)
9.393432 [INFO ] got full sentence: $GAGSV,3,3,10,21,08,175,,10,01,333,,7*79 (blinky src/gps/reader.rs:113)
9.399505 [INFO ] got full sentence: $GBGSV,3,1,09,20,71,006,34,37,63,084,35,46,42,189,,32,35,105,28,1*7E (blinky src/gps/reader.rs:113)
9.405426 [INFO ] got full sentence: $GBGSV,3,2,09,19,30,311,21,23,20,043,20,35,04,293,,29,04,240,,1*70 (blinky src/gps/reader.rs:113)
9.408111 [INFO ] got full sentence: $GBGSV,3,3,09,47,02,221,,1*4F (blinky src/gps/reader.rs:113)
9.412506 [INFO ] parsing gps (blinky blinky/src/main.rs:74)
9.412567 [INFO ] GPS (blinky blinky/src/main.rs:78)
9.414459 [INFO ] got full sentence: $GNRMC,191307.000,A,3548.7135,N,07847.4088,W,0.08,1.77,0925,,,A,V*24 (blinky src/gps/reader.rs:113)
9.417755 [INFO ] got full sentence: $GNVTG,31.77,T,,M,0.08,N,0.15,K,A*1D (blinky src/gps/reader.rs:113)
9.420776 [INFO ] got full sentence: $GNZDA,191307.000,07,09,2025,,*4E (blinky src/gps/reader.rs:113)
9.513183 [INFO ] parsing gps (blinky blinky/src/main.rs:74)
9.513244 [INFO ] NO SIGNAL AT ALL [ERR] $GNZDA,191307.000,07,09,2025,,*4E (blinky blinky/src/main.rs:88)
10.407470 [INFO ] got full sentence: $GBGSV,3,2,09,19,30,311,20,23,20,043,21,35,04,293,,29,04,240,,1*70 (blinky src/gps/reader.rs:113)
10.410156 [INFO ] got full sentence: $GBGSV,3,3,09,47,02,221,,1*4F (blinky src/gps/reader.rs:113)
10.414123 [INFO ] parsing gps (blinky blinky/src/main.rs:74)
10.414184 [INFO ] GPS (blinky blinky/src/main.rs:78)
10.416503 [INFO ] got full sentence: $GNRMC,191308.000,A,3548.7135,N,07847.4088,W,.04,317,070925,,,A,V*27 (blinky src/gps/reader.rs:113)
10.419799 [INFO ] got full sentence: $GNVTG,31.77,T,,M,0.04,N,0.07,K,A*12 (blinky src/gps/reader.rs:113)
10.422851 [INFO ] got full sentence: $GNZDA,191308.000,07,09,2025,,*41 (blinky src/gps/reader.rs:113)
10.514801 [INFO ] parsing gps (blinky blinky/src/main.rs:74)
10.514862 [INFO ] NO SIGNAL AT ALL [ERR] $GNZDA,191308.000,07,09,2025,,*41 (blinky blinky/src/main.rs:88)
11.317718 [INFO ] got full sentence: $GNGGA,191309.000,3548.7135,N,07847.4088,W,1,23,0.59,129.6,M,-33.0,M,,*4D (blinky src/gps/reader.rs:113)
11.327331 [INFO ] got full sentence: $GNGSA,A,3,10,28,32,25,31,12,02,23,,,,,0.91,0.59,0.69,1*05 (blinky src/gps/reader.rs:113)
11.331848 [INFO ] got full sentence: $GNGSA,A,3,80,69,86,79,,,,,,,,,0.91,0.59,0.69,2*0E (blinky src/gps/reader.rs:113)
11.336700 [INFO ] got full sentence: $GNGSA,A,3,29,33,07,27,30,26,,,,,,,0.91,0.59,0.69,3*06 (blinky src/gps/reader.rs:113)
11.341400 [INFO ] got full sentence: $GNGSA,A,3,20,37,32,19,23,,,,,,,,0.91,0.59,0.69,4*01 (blinky src/gps/reader.rs:113)
11.347656 [INFO ] got full sentence: $GPGSV,3,1,10,10,68,145,29,28,65,239,46,32,65,003,36,25,41,095,25,1*6D (blinky src/gps/reader.rs:113)
11.353912 [INFO ] got full sentence: $GPGSV,3,2,10,31,32,229,25,12,25,060,17,02,23,289,21,23,23,142,18,1*60 (blinky src/gps/reader.rs:113)
11.357727 [INFO ] got full sentence: $GPGSV,3,3,10,01,12,317,16,26,03,191,,1*6B (blinky src/gps/reader.rs:113)
11.363464 [INFO ] got full sentence: $GLGSV,3,1,09,80,62,081,16,70,57,012,,73,38,177,,71,27,317,,1*7F (blinky src/gps/reader.rs:113)
11.369537 [INFO ] got full sentence: $GLGSV,3,2,09,69,21,093,26,86,20,290,13,79,19,031,15,85,10,233,,1*79 (blinky src/gps/reader.rs:113)
11.372222 [INFO ] got full sentence: $GLGSV,3,3,09,87,09,331,,1*46 (blinky src/gps/reader.rs:113)
11.378479 [INFO ] got full sentence: $GAGSV,3,1,10,29,63,328,24,33,42,262,34,07,41,062,24,27,33,128,19,7*70 (blinky src/gps/reader.rs:113)
11.384704 [INFO ] got full sentence: $GAGSV,3,2,10,30,28,069,14,26,27,202,16,19,25,282,24,12,17,318,16,7*7F (blinky src/gps/reader.rs:113)
11.388366 [INFO ] got full sentence: $GAGSV,3,3,10,21,08,175,,10,01,333,,7*79 (blinky src/gps/reader.rs:113)
11.394439 [INFO ] got full sentence: $GBGSV,3,1,09,20,71,006,34,37,63,084,35,46,42,189,,32,35,105,28,1*7E (blinky src/gps/reader.rs:113)
11.400329 [INFO ] got full sentence: $GBGSV,3,2,09,19,30,311,20,23,20,043,21,35,04,293,,29,04,240,,1*70 (blinky src/gps/reader.rs:113)
11.403045 [INFO ] got full sentence: $GBGSV,3,3,09,47,02,221,,1*4F (blinky src/gps/reader.rs:113)
11.409362 [INFO ] got full sentence: $GNRMC,191309.000,A,3548.7135,N,07847.4088,W,0.10,31.77,070925,,,A,V*23 (blinky src/gps/reader.rs:113)
11.412658 [INFO ] got full sentence: $GNVTG,31.77,T,,M,0.10,N,0.18,K,A*19 (blinky src/gps/reader.rs:113)
11.415710 [INFO ] got full sentence: $GNZDA,191309.000,07,09,2025,,*40 (blinky src/gps/reader.rs:113)
11.416412 [INFO ] parsing gps (blinky blinky/src/main.rs:74)
11.416473 [INFO ] GPS (blinky blinky/src/main.rs:78)
11.517089 [INFO ] parsing gps (blinky blinky/src/main.rs:74)
11.517150 [INFO ] NO SIGNAL AT ALL [ERR] $GNZDA,191309.000,07,09,2025,,*40 (blinky blinky/src/main.rs:88)
12.329498 [INFO ] got full sentence: $GNGGA,191310.000,3548.7135,N,07847.4088,W,1,22,0.61,129.7,M,-33.0,M,,*4E (blinky src/gps/reader.rs:113)
12.339141 [INFO ] got full sentence: $GNGSA,A,3,10,28,32,25,31,12,02,23,,,,,0.93,0.61,0.70,1*04 (blinky src/gps/reader.rs:113)
12.343475 [INFO ] got full sentence: $GNGSA,A,3,80,69,79,,,,,,,,,,0.93,0.61,0.70,2*01 (blinky src/gps/reader.rs:113)
12.348358 [INFO ] got full sentence: $GNGSA,A,3,29,33,07,27,30,26,,,,,,,0.93,0.61,0.70,3*07 (blinky src/gps/reader.rs:113)
12.353027 [INFO ] got full sentence: $GNGSA,A,3,20,37,32,19,23,,,,,,,,0.93,0.61,0.70,4*00 (blinky src/gps/reader.rs:113)
12.359283 [INFO ] got full sentence: $GPGSV,3,1,10,10,68,145,29,28,65,239,46,32,65,003,36,25,41,093,25,1*6B (blinky src/gps/reader.rs:113)
12.365539 [INFO ] got full sentence: $GPGSV,3,2,10,31,32,229,25,12,25,060,17,02,23,289,22,23,23,142,17,1*6C (blinky src/gps/reader.rs:113)
12.369354 [INFO ] got full sentence: $GPGSV,3,3,10,01,12,317,17,26,03,191,,1*6A (blinky src/gps/reader.rs:113)
12.375091 [INFO ] got full sentence: $GLGSV,3,1,09,80,62,081,17,70,57,012,,73,38,177,,71,27,317,,1*7E (blinky src/gps/reader.rs:113)
12.380981 [INFO ] got full sentence: $GLGSV,3,2,09,69,21,093,25,86,20,290,,79,19,031,12,85,10,233,,1*7F (blinky src/gps/reader.rs:113)
12.383666 [INFO ] got full sentence: $GLGSV,3,3,09,87,09,331,,1*46 (blinky src/gps/reader.rs:113)
12.389923 [INFO ] got full sentence: $GAGSV,3,1,10,29,63,328,24,33,42,262,34,07,41,062,24,27,33,128,19,7*70 (blinky src/gps/reader.rs:113)
12.396179 [INFO ] got full sentence: $GAGSV,3,2,10,30,28,069,13,26,27,202,16,19,25,282,24,12,17,318,16,7*78 (blinky src/gps/reader.rs:113)
12.399810 [INFO ] got full sentence: $GAGSV,3,3,10,21,08,175,,10,01,333,,7*79 (blinky src/gps/reader.rs:113)
12.405883 [INFO ] got full sentence: $GBGSV,3,1,09,20,71,006,34,37,63,084,35,46,42,189,,32,35,105,28,1*7E (blinky src/gps/reader.rs:113)
12.411804 [INFO ] got full sentence: $GBGSV,3,2,09,19,30,311,21,23,20,043,21,35,04,293,,29,04,240,,1*71 (blinky src/gps/reader.rs:113)
12.414489 [INFO ] got full sentence: $GBGSV,3,3,09,47,02,221,,1*4F (blinky src/gps/reader.rs:113)
12.418029 [INFO ] parsing gps (blinky blinky/src/main.rs:74)
12.418090 [INFO ] GPS (blinky blinky/src/main.rs:78)
12.420837 [INFO ] got full sentence: $GNRMC,191310.000,A,3548.7135,N,07847.408,W,0.,31.77,070925,,,A,V*23 (blinky src/gps/reader.rs:113)
12.424133 [INFO ] got full sentence: $GNVTG,31.77,T,,M,0.09,N,0.16,K,A*1F (blinky src/gps/reader.rs:113)
12.427154 [INFO ] got full sentence: $GNZDA,191310.000,07,09,2025,,*48 (blinky src/gps/reader.rs:113)
12.518707 [INFO ] parsing gps (blinky blinky/src/main.rs:74)
12.518768 [INFO ] NO SIGNAL AT ALL [ERR] $GNZDA,191310.000,07,09,2025,,*48 (blinky blinky/src/main.rs:88)
13.325012 [INFO ] got full sentence: $GNGGA,191311.000,3548.7135,N,07847.4088,W,1,22,0.61,129.6,M,-33.0,M,,*4E (blinky src/gps/reader.rs:113)
13.334625 [INFO ] got full sentence: $GNGSA,A,3,10,28,32,25,31,12,23,02,,,,,0.93,0.61,0.70,1*04 (blinky src/gps/reader.rs:113)
13.338989 [INFO ] got full sentence: $GNGSA,A,3,80,69,79,,,,,,,,,,0.93,0.61,0.70,2*01 (blinky src/gps/reader.rs:113)
13.343841 [INFO ] got full sentence: $GNGSA,A,3,29,33,07,27,30,26,,,,,,,0.93,0.61,0.70,3*07 (blinky src/gps/reader.rs:113)
13.348541 [INFO ] got full sentence: $GNGSA,A,3,20,37,32,19,23,,,,,,,,0.93,0.61,0.70,4*00 (blinky src/gps/reader.rs:113)
13.354766 [INFO ] got full sentence: $GPGSV,3,1,10,10,68,145,25,28,65,239,46,32,65,003,36,25,41,093,26,1*64 (blinky src/gps/reader.rs:113)
13.361022 [INFO ] got full sentence: $GPGSV,3,2,10,31,32,229,22,12,25,060,16,23,23,142,20,02,23,289,22,1*6E (blinky src/gps/reader.rs:113)
13.365020 [INFO ] got full sentence: $GPGSV,3,3,10,01,12,317,17,26,04,191,15,1*69 (blinky src/gps/reader.rs:113)
13.370758 [INFO ] got full sentence: $GLGSV,3,1,09,80,62,081,18,70,57,012,,73,38,177,,71,27,317,,1*71 (blinky src/gps/reader.rs:113)
13.376647 [INFO ] got full sentence: $GLGSV,3,2,09,69,21,093,25,86,20,290,,79,19,031,13,85,10,233,,1*7E (blinky src/gps/reader.rs:113)
13.379333 [INFO ] got full sentence: $GLGSV,3,3,09,87,09,331,,1*46 (blinky src/gps/reader.rs:113)
13.385589 [INFO ] got full sentence: $GAGSV,3,1,10,29,63,328,25,33,42,262,34,07,41,062,24,27,33,128,19,7*71 (blinky src/gps/reader.rs:113)
13.391845 [INFO ] got full sentence: $GAGSV,3,2,10,30,28,069,13,26,27,202,16,19,25,282,24,12,17,318,16,7*78 (blinky src/gps/reader.rs:113)
13.395477 [INFO ] got full sentence: $GAGSV,3,3,10,21,08,175,,10,01,333,,7*79 (blinky src/gps/reader.rs:113)
13.401580 [INFO ] got full sentence: $GBGSV,2,1,08,20,71,006,34,37,63,084,35,46,42,189,,32,35,105,28,1*7E (blinky src/gps/reader.rs:113)
13.407470 [INFO ] got full sentence: $GBGSV,2,2,08,19,30,311,21,23,20,043,20,29,04,240,,47,02,221,,1*7A (blinky src/gps/reader.rs:113)
13.413818 [INFO ] got full sentence: $GNRMC,191311.000,A,3548.7135,N,07847.4088,W,0.23,31.77,070925,,,A,V*2A (blinky src/gps/reader.rs:113)
13.417114 [INFO ] got full sentence: $GNVTG,31.77,T,,M,0.23,N,0.42,K,A*16 (blinky src/gps/reader.rs:113)
13.419647 [INFO ] parsing gps (blinky blinky/src/main.rs:74)
13.419708 [INFO ] GPS (blinky blinky/src/main.rs:78)
13.420410 [INFO ] got full sentence: $GNZDA,191311.000,07,09,2025,,*49 (blinky src/gps/reader.rs:113)
13.520324 [INFO ] parsing gps (blinky blinky/src/main.rs:74)
13.520385 [INFO ] NO SIGNAL AT ALL [ERR] $GNZDA,191311.000,07,09,2025,,*49 (blinky blinky/src/main.rs:88)
14.326202 [INFO ] got full sentence: $GNGGA,191312.000,3548.7135,N,07847.4088,W,1,22,0.61,129.6,M,-33.0,M,,*4D (blinky src/gps/reader.rs:113)
14.335845 [INFO ] got full sentence: $GNGSA,A,3,10,28,32,25,31,12,02,23,,,,,0.93,0.61,0.70,1*04 (blinky src/gps/reader.rs:113)
14.340179 [INFO ] got full sentence: $GNGSA,A,3,80,69,79,,,,,,,,,,0.93,0.61,0.70,2*01 (blinky src/gps/reader.rs:113)
14.345062 [INFO ] got full sentence: $GNGSA,A,3,29,33,07,27,30,26,,,,,,,0.93,0.61,0.70,3*07 (blinky src/gps/reader.rs:113)
14.349731 [INFO ] got full sentence: $GNGSA,A,3,20,37,32,19,23,,,,,,,,0.93,0.61,0.70,4*00 (blinky src/gps/reader.rs:113)
14.355987 [INFO ] got full sentence: $GPGSV,3,1,10,10,68,145,26,28,65,239,46,32,65,003,36,25,41,093,27,1*66 (blinky src/gps/reader.rs:113)
14.362243 [INFO ] got full sentence: $GPGSV,3,2,10,31,32,229,25,12,25,060,16,02,23,289,22,23,23,142,24,1*6D (blinky src/gps/reader.rs:113)
14.366241 [INFO ] got full sentence: $GPGSV,3,3,10,01,12,317,17,26,04,191,14,1*68 (blinky src/gps/reader.rs:113)
14.371948 [INFO ] got full sentence: $GLGSV,3,1,09,80,62,081,18,70,57,012,,73,38,177,,71,27,317,,1*71 (blinky src/gps/reader.rs:113)
14.377868 [INFO ] got full sentence: $GLGSV,3,2,09,69,21,093,25,86,20,290,,79,19,031,12,85,10,233,,1*7F (blinky src/gps/reader.rs:113)
14.380554 [INFO ] got full sentence: $GLGSV,3,3,09,87,09,331,,1*46 (blinky src/gps/reader.rs:113)
14.386810 [INFO ] got full sentence: $GAGSV,3,1,10,29,63,328,26,33,42,262,34,07,41,062,23,27,33,128,19,7*75 (blinky src/gps/reader.rs:113)
14.393066 [INFO ] got full sentence: $GAGSV,3,2,10,30,28,069,13,26,27,202,15,19,25,282,24,12,17,318,16,7*7B (blinky src/gps/reader.rs:113)
14.396697 [INFO ] got full sentence: $GAGSV,3,3,10,21,08,175,,10,01,333,,7*79 (blinky src/gps/reader.rs:113)
14.402770 [INFO ] got full sentence: $GBGSV,3,1,09,20,71,006,34,37,63,084,35,46,42,189,,32,35,105,29,1*7F (blinky src/gps/reader.rs:113)
14.408691 [INFO ] got full sentence: $GBGSV,3,2,09,19,30,311,22,23,20,043,20,35,04,293,,29,04,240,,1*73 (blinky src/gps/reader.rs:113)
14.411376 [INFO ] got full sentence: $GBGSV,3,3,09,47,02,221,,1*4F (blinky src/gps/reader.rs:113)
14.417694 [INFO ] got full sentence: $GNRMC,191312.000,A,3548.7135,N,07847.4088,W,0.09,31.77,070925,,,A,V*21 (blinky src/gps/reader.rs:113)
14.420989 [INFO ] got full sentence: $GNVTG,31.77,T,,M,0.09,N,0.17,K,A*1E (blinky src/gps/reader.rs:113)
14.421356 [INFO ] parsing gps (blinky blinky/src/main.rs:74)
14.421386 [INFO ] GPS (blinky blinky/src/main.rs:78)
14.424041 [INFO ] got full sentence: $GNDA,1912.000,07,09,2025,,*4A (blinky src/gps/reader.rs:113)
15.327392 [INFO ] got full sentence: $GNGGA,191313.000,3548.7135,N,07847.4087,W,1,22,0.61,129.6,M,-33.0,M,,*43 (blinky src/gps/reader.rs:113)
15.337005 [INFO ] got full sentence: $GNGSA,A,3,10,28,32,25,31,12,02,23,,,,,0.93,0.61,0.70,1*04 (blinky src/gps/reader.rs:113)
15.341369 [INFO ] got full sentence: $GNGSA,A,3,80,69,79,,,,,,,,,,0.93,0.61,0.70,2*01 (blinky src/gps/reader.rs:113)
15.346221 [INFO ] got full sentence: $GNGSA,A,3,29,33,07,27,30,26,,,,,,,0.93,0.61,0.70,3*07 (blinky src/gps/reader.rs:113)
15.350891 [INFO ] got full sentence: $GNGSA,A,3,20,37,32,19,23,,,,,,,,0.93,0.61,0.70,4*00 (blinky src/gps/reader.rs:113)
15.357147 [INFO ] got full sentence: $GPGSV,3,1,10,10,68,145,27,28,66,241,46,32,65,003,36,25,41,093,28,1*64 (blinky src/gps/reader.rs:113)
15.363403 [INFO ] got full sentence: $GPGSV,3,2,10,31,32,229,24,12,25,060,17,02,23,289,22,23,23,142,23,1*6A (blinky src/gps/reader.rs:113)
15.367401 [INFO ] got full sentence: $GPGSV,3,3,10,01,12,317,17,26,04,191,14,1*68 (blinky src/gps/reader.rs:113)
15.373138 [INFO ] got full sentence: $GLGSV,3,1,09,80,62,081,18,70,57,012,,73,38,177,,71,27,317,,1*71 (blinky src/gps/reader.rs:113)
15.379211 [INFO ] got full sentence: $GLGSV,3,2,09,69,21,093,25,86,20,290,14,79,19,031,13,85,10,233,,1*7B (blinky src/gps/reader.rs:113)
15.381896 [INFO ] got full sentence: $GLGSV,3,3,09,87,09,331,,1*46 (blinky src/gps/reader.rs:113)
15.388153 [INFO ] got full sentence: $GAGSV,3,1,10,29,63,328,26,33,42,262,34,07,41,062,23,27,33,128,19,7*75 (blinky src/gps/reader.rs:113)
15.394378 [INFO ] got full sentence: $GAGSV,3,2,10,30,28,069,13,26,27,202,15,19,25,282,24,12,17,318,16,7*7B (blinky src/gps/reader.rs:113)
15.398040 [INFO ] got full sentence: $GAGSV,3,3,10,21,08,175,,10,01,333,,7*79 (blinky src/gps/reader.rs:113)
15.404113 [INFO ] got full sentence: $GBGSV,3,1,09,20,71,006,35,37,63,084,35,46,42,189,,32,35,105,29,1*7E (blinky src/gps/reader.rs:113)
15.410003 [INFO ] got full sentence: $GBGSV,3,2,09,19,30,311,22,23,20,043,20,35,04,293,,29,04,240,,1*73 (blinky src/gps/reader.rs:113)
15.412719 [INFO ] got full sentence: $GBGSV,3,3,09,47,02,221,,1*4F (blinky src/gps/reader.rs:113)
15.419036 [INFO ] got full sentence: $GNRMC,191313.000,A,3548.7135,N,07847.4087,W,0.23,31.77,070925,,,A,V*27 (blinky src/gps/reader.rs:113)
15.422119 [INFO ] parsing gps (blinky blinky/src/main.rs:74)
15.422149 [INFO ] GPS (blinky blinky/src/main.rs:78)
15.422821 [INFO ] got full sentence: $GNVTG,31.77,T,,M,0.23,N,0.43,K,A*1 (blinky src/gps/reader.rs:113)
